time (seconds),"0: ""satellites (count)""","1: ""time (GPS hhmmss.s)""","2: ""latitude (minutes)""","3: ""longitude (minutes)""","4: ""Velocity (mph)""","5: ""VMG (kts)""","6: ""course (degrees)""","7: ""altitude (m)""","8: ""tension total (kgf)""","9: ""line load rear right (kgf)""","10: ""line load rear left (kgf)""","11: ""line load front right (kgf)""","12: ""line load front left (kgf)""","13: ""Roll (degrees)""","14: ""Pitch (degrees)""","15: ""heading (degrees)""","16: ""rudderAngle (degrees)""","17: ""rudderPitch (degrees)""","18: ""armAngle (degrees)""","19: ""Line Angle Sensor (degrees)""","20: ""Port Foil Angle Sensor (degrees)""","21: ""wind speed app (knots)""","22: ""wind angle app (degrees)""","23: ""wind speed true (knots)""","24: ""wind dir true (degrees)""","25: ""Tacktick AWS (knots)""","26: ""Tacktick AWA (degrees)""","27: ""leeway angle (degrees)""","28: ""kite AWS (kt)""","29: ""kite inflation (psi)""","30: ""kite pitot (pa)""","31: ""kite altitude (m)""","32: ""Tab gain (na)""","33: ""Tab offset (na)""","34: ""Port Foil Command (deg)""","35: ""Stbd Foil Command (deg)""","36: ""Port Foil Actuator Pos (m)""","37: ""Rudder Foil Actuator Pos (m)""","38: ""Stbd Foil Actuator Pos (m)""","39: ""Battery (volts)""","40: ""Stern Height (m)""","41: ""sensor angle port (deg)""","42: ""sensor angle stbd (deg)""","43: ""Port Foil Pitch (deg)""","44: ""Rudder Foil Pitch (deg)""","45: ""Stbd Foil Pitch (deg)""","46: ""stbd foil load (kgf)""","47: ""foil tab angle port (degrees)""","48: ""foil tab angle stbd (degrees)""","49: ""foil tab command port (degrees)""","50: ""foil tab command stbd (degrees)""","51: ""Stbd Wand Angle (deg)""","52: ""Port Wand Angle (deg)""","53: ""Stbd Ultrasonic Height (inches)""","54: ""Port Ultrasonic Height (inches)""","55: ""ctrl MotorSpeed (rpm?)""","56: ""ctrl MotorTorque (Nm?)""","57: ""ctrl MotorTemp (C)""","58: ""ctrl MotorPhaseCurrent (A)""","59: ""ctrl DCPower (W)""","60: ""ctrl DCCurrent (A)""","61: ""ctrl DCVoltage (V)""","62: ""ctrl InverterTemp (C)""","63: ""ctrl InverterStatus ()""","64: ""ctrl InvAngleAdvanceDeg (deg)""","65: ""ctrl PropCtrl_TorqueCommand (Nm)""","66: ""Requested Torque (Nm)""","67: ""Motor Speed (RPM)""","68: ""DC Voltage (V)""","69: ""DC Current (A)""","70: ""Motor Phase A Current (Arms)""","71: ""Motor Phase B Current (Arms)""","72: ""Motor Phase C Current (Arms)""","73: ""Motor Temperature (C)""","74: ""Inverter Temperature A (C)""","75: ""Inverter Temperature B (C)""","76: ""Inverter Temperature C (C)""","77: ""Port Tab Angle (deg)""","78: ""Stbd Tab Angle (deg)""","79: ""Port Wand Height (inches)""","80: ""Starboard Wand Height (inches)""","81: ""ctrl YAW (deg)""","82: ""ctrl ROLL (deg)""","83: ""ctrl PITCH (deg)""","84: ""true wind angle (degrees)"""
0,0,0,0,0,0,0,0,0,10,0,0,0,0,1.4,-4.9,0,0,0,0,0,0,0,0,0,0,0,0,0,0,0,0,0,0,0,0,0,0,0,0,0,0,0,0,0,0,0,0,0,0,0,0,0,0,0,0,0,0,0,0,0,0,0,0,0,0,0,0,0,0,0,0,0,0,0,0,0,0,0,0,0,0,0,0,0,0
0.1,0,-0.0016667,0,0,0,0,0,0,10,0,0,0,0,1.4,-4.9,0,0,0,0,0,0,0,0,0,0,0,0,0,0,0,0,0,0,0,0,0,0,0,0,0,0,0,0,0,0,0,0,0,0,0,0,0,0,0,0,0,0,0,0,0,0,0,0,0,0,0,0,0,0,0,0,0,0,0,0,0,0,0,0,0,0,0,0,0,0
0.2,0,-0.0033333,0,0,0,0,0,0,10,0,0,0,0,1.3,-4.9,0,0,0,0,0,0,0,0,0,0,0,0,0,0,0,0,0,0,0,0,0,0,0,0,0,0,0,0,0,0,0,0,0,0,0,0,0,0,0,0,0,0,0,0,0,0,0,0,0,0,0,0,0,0,0,0,0,0,0,0,0,0,0,0,0,0,0,0,0,0
0.3,0,-0.005,0,0,0,0,0,0,10,0,0,0,0,1.3,-4.9,0,0,0,0,0,0,0,0,0,0,0,0,0,0,0,0,0,0,0,0,0,0,0,0,0,0,0,0,0,0,0,0,0,0,0,0,0,0,0,0,0,0,0,0,0,0,0,0,0,0,0,0,0,0,0,0,0,0,0,0,0,0,0,0,0,0,0,0,0,0
0.4,0,-0.0066667,0,0,0,0,0,0,10,0,0,0,0,1.4,-4.9,0,0,0,0,0,0,0,0,0,0,0,0,0,0,0,0,0,0,0,0,0,0,0,0,0,0,0,0,0,0,0,0,0,0,0,0,0,0,0,0,0,0,0,0,0,0,0,0,0,0,0,0,0,0,0,0,0,0,0,0,0,0,0,0,0,0,0,0,0,0
0.5,0,-0.0083333,0,0,0,0,0,0,10,0,0,0,0,1.4,-4.9,0,0,0,0,0,0,0,0,0,0,0,0,0,0,0,0,0,0,0,0,0,0,0,0,0,0,0,0,0,0,0,0,0,0,0,0,0,0,0,0,0,0,0,0,0,0,0,0,0,0,0,0,0,0,0,0,0,0,0,0,0,0,0,0,0,0,0,0,0,0
0.6,0,-0.01,0,0,0,0,0,0,10,0,0,0,0,1.4,-4.9,0,0,0,0,0,0,0,0,0,0,0,0,0,0,0,0,0,0,0,0,0,0,0,0,0,0,0,0,0,0,0,0,0,0,0,0,0,0,0,0,0,0,0,0,0,0,0,0,0,0,0,0,0,0,0,0,0,0,0,0,0,0,0,0,0,0,0,0,0,0
0.7,0,-0.0116667,0,0,0,0,0,0,10,0,0,0,0,1.4,-4.9,0,0,0,0,0,0,0,0,0,0,0,0,0,0,0,0,0,0,0,0,0,0,0,0,0,0,0,0,0,0,0,0,0,0,0,0,0,0,0,0,0,0,0,0,0,0,0,0,0,0,0,0,0,0,0,0,0,0,0,0,0,0,0,0,0,0,0,0,0,0
0.8,0,-0.0133333,0,0,0,0,0,0,10,0,0,0,0,1.4,-4.9,0,0,0,0,0,0,0,0,0,0,0,0,0,0,0,0,0,0,0,0,0,0,0,0,0,0,0,0,0,0,0,0,0,0,0,0,0,0,0,0,0,0,0,0,0,0,0,0,0,0,0,0,0,0,0,0,0,0,0,0,0,0,0,0,0,0,0,0,0,0
0.9,0,-0.015,0,0,0,0,0,0,10,0,0,0,0,1.5,-4.9,0,0,0,0,0,0,0,0,0,0,0,0,0,0,0,0,0,0,0,0,0,0,0,0,0,0,0,0,0,0,0,0,0,0,0,0,0,0,0,0,0,0,0,0,0,0,0,0,0,0,0,0,0,0,0,0,0,0,0,0,0,0,0,0,0,0,0,0,0,0
1,0,-0.0166667,0,0,0,0,0,0,10,0,0,0,0,1.5,-4.9,0,0,0,0,0,0,0,0,0,0,0,0,0,0,0,0,0,0,0,0,0,0,0,0,0,0,0,0,0,0,0,0,0,0,0,0,0,0,0,0,0,0,0,0,0,0,0,0,0,0,0,0,0,0,0,0,0,0,0,0,0,0,0,0,0,0,0,0,0,0
1.1,0,-0.0183333,0,0,0,0,0,0,10,0,0,0,0,1.5,-4.9,0,0,0,0,0,0,0,0,0,0,0,0,0,0,0,0,0,0,0,0,0,0,0,0,0,0,0,0,0,0,0,0,0,0,0,0,0,0,0,0,0,0,0,0,0,0,0,0,0,0,0,0,0,0,0,0,0,0,0,0,0,0,0,0,0,0,0,0,0,0
1.2,0,-0.02,0,0,0,0,0,0,10,0,0,0,0,1.6,-4.9,0,0,0,0,0,0,0,0,0,0,0,0,0,0,0,0,0,0,0,0,0,0,0,0,0,0,0,0,0,0,0,0,0,0,0,0,0,0,0,0,0,0,0,0,0,0,0,0,0,0,0,0,0,0,0,0,0,0,0,0,0,0,0,0,0,0,0,0,0,0
1.3,0,-0.0216667,0,0,0,0,0,0,10,0,0,0,0,1.6,-4.8,0,0,0,0,0,0,0,0,0,0,0,0,0,0,0,0,0,0,0,0,0,0,0,0,0,0,0,0,0,0,0,0,0,0,0,0,0,0,0,0,0,0,0,0,0,0,0,0,0,0,0,0,0,0,0,0,0,0,0,0,0,0,0,0,0,0,0,0,0,0
1.4,0,-0.0233333,0,0,0,0,0,0,10,0,0,0,0,1.5,-4.8,0,0,0,0,0,0,0,0,0,0,0,0,0,0,0,0,0,0,0,0,0,0,0,0,0,0,0,0,0,0,0,0,0,0,0,0,0,0,0,0,0,0,0,0,0,0,0,0,0,0,0,0,0,0,0,0,0,0,0,0,0,0,0,0,0,0,0,0,0,0
1.5,0,-0.025,0,0,0,0,0,0,10,0,0,0,0,1.5,-4.8,0,0,0,0,0,0,0,0,0,0,0,0,0,0,0,0,0,0,0,0,0,0,0,0,0,0,0,0,0,0,0,0,0,0,0,0,0,0,0,0,0,0,0,0,0,0,0,0,0,0,0,0,0,0,0,0,0,0,0,0,0,0,0,0,0,0,0,0,0,0
1.6,0,-0.0266667,0,0,0,0,0,0,10,0,0,0,0,1.5,-4.8,0,0,0,0,0,0,0,0,0,0,0,0,0,0,0,0,0,0,0,0,0,0,0,0,0,0,0,0,0,0,0,0,0,0,0,0,0,0,0,0,0,0,0,0,0,0,0,0,0,0,0,0,0,0,0,0,0,0,0,0,0,0,0,0,0,0,0,0,0,0
1.7,0,-0.0283333,0,0,0,0,0,0,10,0,0,0,0,1.5,-4.9,0,0,0,0,0,0,0,0,0,0,0,0,0,0,0,0,0,0,0,0,0,0,0,0,0,0,0,0,0,0,0,0,0,0,0,0,0,0,0,0,0,0,0,0,0,0,0,0,0,0,0,0,0,0,0,0,0,0,0,0,0,0,0,0,0,0,0,0,0,0
1.8,0,-0.03,1969.56,7338.0131,0.13,0.1,119.39,1,12.8,0,0,-7,-16.8,1.5,-4.9,44.6,0,0,1.3,0,0,4.2,-138,0.4,-92.6,0,0,74.8,0,0,0,0,0,0,192,183,0.018,0.154,0.018,0,0.271,0,0,1,8.8,1,0,0,0,286.5,343.8,11.8,9.4,1.4,0,0,0,0,0,0,0,0,0,0,0,0,0,0,143.7,0,-0.8,0.2,-0.1,21.1,18.3,18.4,18.2,12,12.3,15.5,13.3,0,0,0,137.2
1.9,0,-0.0316667,1969.56,7338.01304,0.09,0.06,50.94,1,0,-1.2,-2.2,-6.4,-18,1.5,-4.9,45,0,0,0.2,0,0,4.1,-133,0.8,-90.5,0,0,5.9,0,0,0,0,0,0,192,183,0.018,0.154,0.018,0,0.29,0,0,1,8.8,1,0,0,0,286.5,343.8,11.8,9.7,1.3,0,0,0,0,0,0,0,0,0,0,0,0,0,0,143.8,0,0,0.2,0.2,21.1,18.3,18.4,18.2,12.1,12.2,15.3,13.4,0,0,0,135.5
2,0,-0.0333333,1969.56,7338.01304,0.09,0.06,50.94,1,0,-0.8,-2.8,-6.3,-18,1.4,-4.9,45.1,0,0,0.8,0,0,5.7,-145,1.3,-94.9,0,0,5.9,0,0,0,0,0,0,192,183,0.018,0.154,0.018,0,0.274,0,0,1,8.8,1,0,0,0,286.5,343.8,11.9,9.9,1.2,0.2,0,0,0,0,0,0,0,0,0,0,0,0,0,143.6,0,0,-0.5,-0.1,21.1,18.3,18.4,18.2,12.1,12.1,15.4,13.7,0,0,0,140
2.1,0,-0.035,1969.56,7338.01303,0.13,0.1,48.74,1,0,-0.5,-3.1,-6.5,-17.2,1.4,-4.9,45.1,0,0,0.6,0,0,5.7,-145,1.3,-94.9,0,0,3.7,0,0,0,0,0,0,192,183,0.018,0.154,0.017,0,0.271,0,0,1,8.8,1,0,0,0,286.5,343.8,11.9,10.1,1.2,0.4,0,0,0,0,0,0,0,0,0,0,0,0,0,143.7,0,0.2,0.2,0.2,21.1,18.3,18.4,18.2,12.1,12,15.4,13.8,0,0,0,140
2.2,0,-0.0366667,1969.56,7338.01303,0.13,0.1,48.74,1,0,-1.6,-2.1,-6.5,-17.2,1.4,-4.9,45.1,0,0,0.8,0,0,5,-140,1.7,-95.1,0,0,3.6,0,0,0,0,0,0,192,183,0.018,0.154,0.018,0,0.418,0,0,1,8.8,1,0,0,0,286.5,343.8,11.9,10.1,1,0.4,0,0,0,0,0,0,0,0,0,0,0,0,0,143.8,0,0,0.2,-0.1,21.1,18.3,18.4,18.2,12.1,12,15.4,13.8,0,0,0,140.2
2.3,0,-0.0383333,1969.56,7338.01303,0.04,-0.04,-54.89,1,0,-0.9,-2.4,-6.8,-17.2,1.4,-4.9,45.2,0,0,0.7,0,0,5,-140,1.7,-95.1,0,0,-100.1,0,0,0,0,0,0,192,183,0.018,0.154,0.018,0,0.27,0,0,1,8.8,1,0,0,0,286.5,343.8,11.8,9.9,1,0.2,0,0,0,0,0,0,0,0,0,0,0,0,0,143.6,0,0,-0.1,0.1,21.1,18.3,18.4,18.2,12.1,12.1,15.3,13.6,0,0,0,140.3
2.4,0,-0.04,1969.56,7338.01301,0.04,-0.04,-54.89,1,0,-0.9,-2.4,-6.5,-17,1.4,-4.9,45.2,0,0,0.9,0,0,5,-140,1.7,-95.1,0,0,-100.1,0,0,0,0,0,0,192,183,0.018,0.154,0.017,0,0.268,0,0,1,8.8,1,0,0,0,286.5,343.8,11.7,9.6,1.4,0,0,0,0,0,0,0,0,0,0,0,0,0,0,143.5,0,0,-0.5,0.1,21,18.3,18.4,18.2,12.2,12.3,15.2,13.3,0,0,0,140.3
2.5,0,-0.0416667,1969.56,7338.013,0.04,-0.04,-54.89,1,0,0.1,-3.1,-6.8,-17,1.4,-4.9,45.2,0,0,0.8,0,0,4.3,-134,1.9,-93.8,0,0,-100.1,0,0,0,0,0,0,192,183,0.018,0.154,0.018,0,0.267,0,0,1,8.8,1,0,0,0,286.5,343.8,11.8,9.4,1.7,0,0,0,0,0,0,0,0,0,0,0,0,0,0,143.6,0,-0.4,-0.5,0.8,21.1,18.3,18.4,18.2,12.1,12.4,15.3,13.2,0,0,0,139
2.6,0,-0.0433333,1969.56,7338.013,0.2,-0.04,-19.14,1,0,-0.5,-2.4,-6.6,-17.2,1.4,-4.9,45.3,0,0,0.4,0,0,4.3,-134,1.9,-93.8,0,0,-64.4,0,0,0,0,0,0,192,183,0.018,0.154,0.017,0,0.265,0,0,1,8.8,1,0,0,0,286.5,343.8,12,9.5,1.5,0,0,0,0,0,0,0,0,0,0,0,0,0,0,143.5,0,0,0.2,0.2,21.1,18.3,18.4,18.2,12,12.3,15.5,13.2,0,0,0,139.1
2.7,0,-0.045,1969.56,7338.01299,0.2,-0.04,-19.14,1,0,-2,-1.9,-6.5,-17.4,1.5,-4.9,45.4,0,0,1.5,0,0,4.3,-134,1.9,-93.8,0,0,-64.4,0,0,0,0,0,0,192,183,0.018,0.154,0.017,0,0.268,0,0,1,8.8,1,0,0,0,286.5,343.8,12.2,9.7,1.7,0,0,0,0,0,0,0,0,0,0,0,0,0,0,143.5,0,-0.5,0.2,0.2,21.1,18.3,18.4,18.2,11.9,12.2,15.7,13.4,0,0,0,139.2
2.8,0,-0.0466667,1969.56,7338.01298,0.04,0.02,26.38,1,0,-2.1,-1.5,-7,-17,1.5,-4.9,45.5,0,0,1.2,0,0,4.3,-145,2.2,-95.4,0,0,-19.1,0,0,0,0,0,0,192,183,0.018,0.154,0.017,0,0.271,0,0,1,8.8,1,0,0,0,286.5,343.8,12.3,9.9,1.8,0,0,0,0,0,0,0,0,0,0,0,0,0,0,143.5,0,0,-0.1,0.2,21.1,18.3,18.4,18.2,11.8,12.1,15.7,13.6,0,0,0,140.9
2.9,0,-0.0483333,1969.56,7338.01298,0.04,0.02,26.38,1,0,-2.1,-1.5,-6.9,-16.3,1.5,-4.9,45.5,0,0,0.9,0,0,4.3,-145,2.2,-95.4,0,0,-19.1,0,0,0,0,0,0,192,183,0.018,0.154,0.018,0,0.271,0,0,1,8.8,1,0,0,0,286.5,343.8,12.2,10,1.7,0,0,0,0,0,0,0,0,0,0,0,0,0,0,143.8,0,0,0,0.2,21.1,18.3,18.4,18.2,11.9,12.1,15.7,13.7,0,0,0,140.9
3,0,-0.05,1969.56,7338.01297,0.04,0.02,26.38,1,0,-0.9,-2.2,-6,-17,1.5,-4.8,45.6,0,0,0.2,0,0,5.2,-138,2.5,-94.9,0,0,-19.2,0,0,0,0,0,0,192,183,0.018,0.154,0.018,0,0.28,0,0,1,8.8,1,0,0,0,286.5,343.8,12,10,1.7,0.3,0,0,0,0,0,0,0,0,0,0,0,0,0,143.7,0,0,0.2,0,21.1,18.3,18.4,18.2,12,12.1,15.5,13.7,0,0,0,140.5
3.1,0,-0.0516667,1969.56,7338.01297,0.13,0.06,139.8,1,0,-1.2,-2.4,-6.5,-16.6,1.6,-4.8,45.7,0,0,1.2,0,0,5.2,-138,2.5,-94.9,0,0,94.2,0,0,0,0,0,0,192,183,0.018,0.154,0.018,0,0.275,0,0,1,8.8,1,0,0,0,286.5,343.8,11.8,10,1.7,0.8,0,0,0,0,0,0,0,0,0,0,0,0,0,143.7,0,0,0,0,21.1,18.3,18.4,18.2,12.1,12.1,15.3,13.7,0,0,0,140.6
3.2,0,-0.0533333,1969.56,7338.01297,0.13,0.06,139.8,1,0,-1.1,-2.2,-6.5,-16.6,1.5,-4.9,45.8,0,0,0.4,0,0,5.2,-138,2.5,-94.9,0,0,94.1,0,0,0,0,0,0,192,183,0.018,0.154,0.017,0,0.269,0,0,1,8.8,1,0,0,0,286.5,343.8,11.7,10,1.8,0.8,0,0,0,0,0,0,0,0,0,0,0,0,0,143.7,0,0.3,-0.4,0.6,21.1,18.3,18.4,18.2,12.2,12.1,15.2,13.7,0,0,0,140.7
3.3,0,-0.055,1969.56,7338.01296,0.02,-0.02,-40.68,1,0,-0.4,-3,-6.3,-17.7,1.5,-4.9,45.8,0,0,0.5,0,0,6.1,-133,2.8,-93,0,0,-86.5,0,0,0,0,0,0,192,183,0.018,0.154,0.017,0,0.272,0,0,1,8.8,1,0,0,0,286.5,343.8,11.7,9.9,1.8,0.4,0,0,0,0,0,0,0,0,0,0,0,0,0,143.6,0,0,0.2,0.2,21.1,18.3,18.4,18.2,12.2,12.1,15.1,13.6,0,0,0,138.8
3.4,0,-0.0566667,1969.56,7338.01295,0.02,-0.02,-40.68,1,0,-0.4,-3,-6,-17.6,1.5,-4.9,45.9,0,0,1.4,0,0,6.1,-133,2.8,-93,0,0,-86.5,0,0,0,0,0,0,192,183,0.018,0.154,0.018,0,0.264,0,0,1,8.8,1,0,0,0,286.5,343.8,11.8,9.8,1.6,0,0,0,0,0,0,0,0,0,0,0,0,0,0,143.8,0,-0.4,0.2,-2.3,21.1,18.3,18.4,18.2,12.2,12.2,15.3,13.6,0,0,0,138.9
3.5,0,-0.0583333,1969.56,7338.01294,0.02,-0.02,-40.68,1,0,-0.6,-2.8,-7.4,-16.6,1.5,-4.9,45.9,0,0,0.4,0,0,6.1,-133,2.8,-93,0,0,-86.6,0,0,0,0,0,0,192,183,0.018,0.154,0.018,0,0.266,0,0,1,8.8,1,0,0,0,286.5,343.8,11.9,9.8,1.4,0,0,0,0,0,0,0,0,0,0,0,0,0,0,143.6,0,0,0.2,0.1,21.1,18.3,18.4,18.2,12.1,12.2,15.4,13.5,0,0,0,138.9
3.6,0,-0.06,1969.56,7338.01294,0.11,0.1,78.23,1,0,-1.8,-1.9,-7.4,-16.6,1.5,-4.9,45.8,0,0,0.4,0,0,5.7,-132,3.1,-91.8,0,0,32.4,0,0,0,0,0,0,192,183,0.018,0.154,0.018,0,0.268,0,0,1,8.8,1,0,0,0,286.5,343.8,12.1,9.7,1.3,0,0,0,0,0,0,0,0,0,0,0,0,0,0,143.6,0,0,-0.1,1.2,21.1,18.3,18.4,18.2,12,12.2,15.5,13.5,0,0,0,137.6
3.7,0,-0.0616667,1969.56,7338.01294,0.11,0.1,78.23,1,0,-1.8,-1.9,-6.3,-17.2,1.5,-4.9,45.8,0,0,0.3,0,0,5.7,-132,3.1,-91.8,0,0,32.4,0,0,0,0,0,0,192,183,0.018,0.154,0.018,0,0.263,0,0,1,8.8,1,0,0,0,286.5,343.8,12.1,9.6,1.4,0,0,0,0,0,0,0,0,0,0,0,0,0,0,143.6,0,-0.1,-0.5,0,21.1,18.3,18.4,18.1,12,12.3,15.6,13.4,0,0,0,137.6
3.8,0,-0.0633333,1969.56,7338.01293,0.02,0.02,60.65,1,0,-0.7,-2.7,-6.2,-17.7,1.5,-4.9,45.9,0,0,1,0,0,6.1,-138,3.4,-91.9,0,0,14.8,0,0,0,0,0,0,192,183,0.018,0.154,0.017,0,0.269,0,0,1,8.8,1,0,0,0,286.5,343.8,12,9.5,1.4,0,0,0,0,0,0,0,0,0,0,0,0,0,0,143.5,0,0.2,0.2,0.4,21.1,18.3,18.4,18.2,12,12.3,15.5,13.3,0,0,0,137.8
3.9,0,-0.065,1969.56,7338.01292,0.02,0.02,60.65,1,0,-0.7,-2.7,-6.4,-16.7,1.5,-4.9,45.9,0,0,0.5,0,0,6.1,-138,3.4,-91.9,0,0,14.8,0,0,0,0,0,0,192,183,0.018,0.154,0.018,0,0.268,0,0,1,8.8,1,0,0,0,286.5,343.8,11.8,9.6,1.4,0,0,0,0,0,0,0,0,0,0,0,0,0,0,143.7,0,-0.5,-0.1,-0.2,21.1,18.3,18.4,18.1,12.2,12.3,15.3,13.3,0,0,0,137.8
4,0,-0.0666667,1969.56,7338.01292,0.02,0.02,60.65,1,0,-0.9,-2.4,-6.3,-17.6,1.5,-5,45.9,0,0,1.1,0,0,6.1,-138,3.4,-91.9,0,0,14.8,0,0,0,0,0,0,192,183,0.018,0.154,0.018,0,0.422,0,0,1,8.8,1,0,0,0,286.5,343.8,11.7,9.6,1.4,0,0,0,0,0,0,0,0,0,0,0,0,0,0,143.5,0,-0.1,0.5,-0.2,21.1,18.3,18.4,18.1,12.2,12.3,15.2,13.4,0,0,0,137.8
4.1,0,-0.0683333,1969.56,7338.01292,0.11,-0.1,-99.29,1,0,-0.7,-2.7,-6.9,-16.8,1.5,-4.9,45.9,0,0,1.4,0,0,6.4,-133,3.7,-91.1,0,0,-145.2,0,0,0,0,0,0,192,183,0.018,0.154,0.018,0,0.274,0,0,1,8.8,1,0,0,0,286.5,343.8,11.7,9.9,1.3,0.6,0,0,0,0,0,0,0,0,0,0,0,0,0,143.7,0,-0.1,0.2,0.5,21.1,18.3,18.4,18.2,12.2,12.1,15.1,13.6,0,0,0,137
4.2,0,-0.07,1969.56,7338.01292,0.11,-0.1,-99.29,1,0,-0.8,-2.4,-7.4,-16.3,1.5,-4.9,45.9,0,0,0.9,0,0,6.4,-133,3.7,-91.1,0,0,-145.2,0,0,0,0,0,0,192,183,0.018,0.154,0.017,0,0.272,0,0,1,8.8,1,0,0,0,286.5,343.8,11.9,10.1,1.2,0.8,0,0,0,0,0,0,0,0,0,0,0,0,0,143.7,0,-0.5,-0.2,-0.2,21.1,18.3,18.4,18.1,12.1,12,15.4,13.8,0,0,0,137
4.3,0,-0.0716667,1969.56,7338.01292,0.09,0.04,153.29,1,0,-0.8,-2.2,-6.3,-17.2,1.5,-4.9,45.9,0,0,1.1,0,0,6,-135,3.9,-90.8,0,0,107.4,0,0,0,0,0,0,192,183,0.018,0.154,0.017,0,0.27,0,0,1,8.8,1,0,0,0,286.5,343.8,12.1,10.3,1.2,0.6,0,0,0,0,0,0,0,0,0,0,0,0,0,143.5,0,0.2,-0.2,-0.5,21.1,18.3,18.4,18.2,11.9,11.9,15.6,14,0,0,0,136.7
4.4,0,-0.0733333,1969.56,7338.01291,0.09,0.04,153.29,1,0,-0.8,-2.2,-6.7,-17.1,1.5,-4.9,45.7,0,0,0.5,0,0,6,-135,3.9,-90.8,0,0,107.4,0,0,0,0,0,0,192,183,0.018,0.154,0.018,0,0.264,0,0,1,8.8,1,0,0,0,286.5,343.8,12.2,10.4,1.5,0.3,0,0,0,0,0,0,0,0,0,0,0,0,0,143.7,0,0.1,0.1,-2,21.1,18.3,18.4,18.2,11.9,11.9,15.7,14,0,0,0,136.5
4.5,0,-0.075,1969.56,7338.01291,0.09,0.04,153.29,1,0,-2.3,-1.9,-6.7,-16.9,1.6,-4.9,45.6,0,0,1.4,0,0,6,-135,3.9,-90.8,0,0,107.6,0,0,0,0,0,0,192,183,0.018,0.154,0.018,0,0.258,0,0,1,8.8,1,0,0,0,286.5,343.8,12.2,10.2,1.5,0,0,0,0,0,0,0,0,0,0,0,0,0,0,143.7,0,-0.8,-0.6,-0.1,21.1,18.3,18.4,18.2,11.9,12,15.6,13.9,0,0,0,136.4
4.6,0,-0.0766667,1969.56,7338.0129,0.09,0.08,83.84,1,0,-0.4,-3.1,-6.8,-16.6,1.6,-4.9,45.6,0,0,1.4,0,0,4.9,-124,4,-89.2,0,0,38.2,0,0,0,0,0,0,192,183,0.018,0.154,0.018,0,0.257,0,0,1,8.8,1,0,0,0,286.5,343.8,12,9.9,1.5,0,0,0,0,0,0,0,0,0,0,0,0,0,0,143.5,0,0.1,0.5,0.1,21,18.3,18.4,18.2,12,12.1,15.5,13.6,0,0,0,134.8
4.7,0,-0.0783333,1969.56,7338.0129,0.09,0.08,83.84,1,0,-1.6,-1.9,-7.4,-16.5,1.6,-4.9,45.6,0,0,1.1,0,0,4.9,-124,4,-89.2,0,0,38.2,0,0,0,0,0,0,192,183,0.018,0.154,0.018,0,0.259,0,0,1,8.8,1,0,0,0,286.5,343.8,11.9,9.6,1.7,0,0,0,0,0,0,0,0,0,0,0,0,0,0,143.5,0,-0.8,0.1,-0.5,21.1,18.3,18.4,18.2,12.1,12.3,15.3,13.3,0,0,0,134.8
4.8,0,-0.08,1969.56,7338.01289,0.04,0,-175.86,1,0,-1.4,-1.7,-7,-17,1.6,-4.9,45.6,0,0,0.3,0,0,4.5,-117,4.1,-87.2,0,0,138.5,0,0,0,0,0,0,192,183,0.018,0.154,0.018,0,0.266,0,0,1,8.8,1,0,0,0,286.5,343.8,11.8,9.4,1.7,0,0,0,0,0,0,0,0,0,0,0,0,0,0,143.8,0,-0.1,0,-0.2,21.1,18.3,18.4,18.2,12.1,12.4,15.3,13.2,0,0,0,132.8
4.9,0,-0.0816667,1969.56,7338.01289,0.04,0,-175.86,1,0,-1.4,-1.7,-6.2,-17.6,1.6,-4.9,45.6,0,0,1.3,0,0,4.5,-117,4.1,-87.2,0,0,138.5,0,0,0,0,0,0,192,183,0.018,0.154,0.017,0,0.27,0,0,1,8.8,1,0,0,0,286.5,343.8,11.9,9.5,1.9,0,0,0,0,0,0,0,0,0,0,0,0,0,0,143.5,0,0.2,0.1,-0.6,21,18.3,18.4,18.2,12.1,12.3,15.4,13.2,0,0,0,132.8
5,0,-0.0833333,1969.56,7338.01289,0.04,0,-175.86,1,0,-1.2,-2.4,-6.8,-16.6,1.6,-4.9,45.5,0,0,1.1,0,0,4.5,-117,4.1,-87.2,0,0,138.6,0,0,0,0,0,0,192,183,0.018,0.154,0.017,0,0.275,0,0,1,8.8,1,0,0,0,286.5,343.8,12,9.7,2.1,0,0,0,0,0,0,0,0,0,0,0,0,0,0,143.9,0,0,-0.2,-0.2,21.1,18.3,18.4,18.2,12,12.2,15.4,13.5,0,0,0,132.7
5.1,0,-0.085,1969.56,7338.01288,0.04,0.02,164.32,1,0,-1.3,-2.2,-6.6,-17.3,1.6,-4.9,45.5,0,0,0.3,0,0,4.5,-117,4.1,-87.2,0,0,118.8,0,0,0,0,0,0,192,183,0.018,0.154,0.018,0,0.28,0,0,1,8.8,1,0,0,0,286.5,343.8,12,9.9,2.1,0,0,0,0,0,0,0,0,0,0,0,0,0,0,143.7,0,0,-0.2,-0.5,21.1,18.3,18.4,18.2,12,12.1,15.5,13.6,0,0,0,132.7
5.2,0,-0.0866667,1969.56,7338.01288,0.04,0.02,164.32,1,0,-1.7,-1.9,-6.1,-17.3,1.6,-4.9,45.4,0,0,1.4,0,0,5,-127,4.2,-86.5,0,0,118.8,0,0,0,0,0,0,192,183,0.018,0.154,0.018,0,0.289,0,0,1,8.8,1,0,0,0,286.5,343.8,12,10.1,1.8,0,0,0,0,0,0,0,0,0,0,0,0,0,0,143.6,0,0.2,0.1,0.5,21.1,18.3,18.4,18.2,12,12,15.4,13.8,0,0,0,131.9
5.3,0,-0.0883333,1969.56,7338.01288,0,0,180,1,0,-1.8,-2,-6.8,-16.9,1.7,-4.9,45.4,0,0,1.6,0,0,5,-127,4.2,-86.5,0,0,134.6,0,0,0,0,0,0,192,183,0.018,0.154,0.018,0,0.279,0,0,1,8.8,1,0,0,0,286.5,343.8,12,10,1.5,0,0,0,0,0,0,0,0,0,0,0,0,0,0,143.9,0,-0.5,-0.5,-0.2,21.1,18.3,18.4,18.2,12,12.1,15.5,13.7,0,0,0,131.9
5.4,0,-0.09,1969.56,7338.01288,0,0,180,1,0,-1.8,-2,-7.6,-16.2,1.7,-4.8,45.3,0,0,1.1,0,0,5.2,-137,4.3,-87.1,0,0,134.6,0,0,0,0,0,0,192,183,0.018,0.154,0.018,0,0.273,0,0,1,8.8,1,0,0,0,286.5,343.8,12,9.9,1.2,0,0,0,0,0,0,0,0,0,0,0,0,0,0,143.7,0,-0.5,-0.1,-0.2,21.1,18.3,18.4,18.2,12,12.1,15.5,13.6,0,0,0,132.4
5.5,0,-0.0916667,1969.56,7338.01288,0,0,180,1,0,-1,-2,-7,-16.9,1.7,-4.9,45.2,0,0,1.3,0,0,5.2,-137,4.3,-87.1,0,0,134.7,0,0,0,0,0,0,192,183,0.018,0.154,0.018,0,0.266,0,0,1,8.8,1,0,0,0,286.5,343.8,12.1,9.7,1.1,0,0,0,0,0,0,0,0,0,0,0,0,0,0,144,0,0.2,-0.2,-0.2,21.1,18.3,18.4,18.2,12,12.2,15.5,13.4,0,0,0,132.3
5.6,0,-0.0933333,1969.56,7338.01288,0.09,-0.04,-148.89,1,0,-1.5,-1.7,-7.5,-16.3,1.7,-4.8,45,0,0,1.1,0,0,5.2,-137,4.3,-87.1,0,0,165.9,0,0,0,0,0,0,192,183,0.018,0.154,0.018,0,0.263,0,0,1,8.8,1,0,0,0,286.5,343.8,12,9.6,1.8,0,0,0,0,0,0,0,0,0,0,0,0,0,0,143.9,0,-0.1,-0.5,0,21.1,18.3,18.4,18.2,12,12.3,15.4,13.4,0,0,0,132.1
5.7,0,-0.095,1969.56,7338.01287,0.09,-0.04,-148.89,1,0,-1.9,-1.6,-6.3,-16.9,1.8,-4.8,44.9,0,0,0.8,0,0,6.3,-146,4.4,-89,0,0,166.1,0,0,0,0,0,0,192,183,0.018,0.154,0.018,0,0.384,0,0,1,8.8,1,0,0,0,286.5,343.8,11.8,9.5,1.5,0,0,0,0,0,0,0,0,0,0,0,0,0,0,143.4,0,0.2,0.5,-0.2,21.1,18.3,18.4,18.2,12.1,12.3,15.3,13.3,0,0,0,133.9
5.8,0,-0.0966667,1969.56,7338.01287,0.09,0.04,142.63,1,0,-0.9,-2.5,-6.7,-17.4,2,-4.8,44.8,0,0,1.4,0,0,6.3,-146,4.4,-89,0,0,97.8,0,0,0,0,0,0,192,183,0.018,0.154,0.018,0,0.491,0,0,1,8.8,1,0,0,0,286.5,343.8,11.7,9.4,1.5,0,0,0,0,0,0,0,0,0,0,0,0,0,0,143.5,0,-0.5,0.1,-0.3,21.1,18.3,18.4,18.2,12.2,12.4,15.2,13.2,0,0,0,133.8
5.9,0,-0.0983333,1969.56,7338.01286,0.09,0.04,142.63,1,0,-0.9,-2.5,-7.2,-16.6,2.1,-4.9,44.7,0,0,0.4,0,0,6.3,-146,4.4,-89,0,0,97.8,0,0,0,0,0,0,192,183,0.018,0.154,0.017,0,0.374,0,0,1,8.8,1,0,0,0,286.5,343.8,11.7,9.3,1.4,0,0,0,0,0,0,0,0,0,0,0,0,0,0,143.7,0,-0.1,0.2,0.5,21.1,18.3,18.4,18.1,12.2,12.4,15.2,13.1,0,0,0,133.7
6,0,-0.1,1969.56,7338.01286,0.09,0.04,142.63,1,0,-1,-2.1,-6,-17.6,2.2,-4.8,44.6,0,0,0.8,0,0,5.6,-149,4.5,-90.8,0,0,98,0,0,0,0,0,0,192,183,0.018,0.154,0.018,0,0.374,0,0,1,8.8,1,0,0,0,286.5,343.8,11.9,9.4,1.3,0,0,0,0,0,0,0,0,0,0,0,0,0,0,143.6,0,-0.5,0,-0.2,21.1,18.3,18.4,18.2,12.1,12.4,15.4,13.2,0,0,0,135.4
6.1,0,-0.1016667,1969.56,7338.01286,0.13,0.04,159.51,1,0,-0.2,-3.4,-6.5,-17.1,2.3,-4.8,44.5,0,0,1.5,0,0,5.6,-149,4.5,-90.8,0,0,114.9,0,0,0,0,0,0,192,183,0.018,0.154,0.018,0,0.267,0,0,1,8.8,1,0,0,0,286.5,343.8,12.1,9.7,1.4,0,0,0,0,0,0,0,0,0,0,0,0,0,0,143.7,0,-0.5,-0.8,0.5,21.1,18.3,18.4,18.2,11.9,12.2,15.6,13.5,0,0,0,135.3
6.2,0,-0.1033333,1969.56,7338.01286,0.13,0.04,159.51,1,0,-1,-2.4,-7.1,-16.9,2.4,-4.8,44.5,0,0,0.8,0,0,5.6,-144,4.6,-91.7,0,0,115,0,0,0,0,0,0,192,183,0.018,0.154,0.018,0,0.26,0,0,1,8.8,1,0,0,0,286.5,343.8,12.3,10,1.7,0,0,0,0,0,0,0,0,0,0,0,0,0,0,143.7,0,0.2,0.2,-0.2,21.1,18.3,18.4,18.2,11.8,12.1,15.7,13.7,0,0,0,136.2
6.3,0,-0.105,1969.56,7338.01286,0.16,0,-179.87,1,0,-1.3,-2.6,-6.5,-16.9,2.4,-4.7,44.4,0,0,1.3,0,0,5.6,-144,4.6,-91.7,0,0,135.7,0,0,0,0,0,0,192,183,0.018,0.154,0.017,0,0.259,0,0,1,8.8,1,0,0,0,286.5,343.8,12.3,10.1,1.8,0,0,0,0,0,0,0,0,0,0,0,0,0,0,143.6,0,-0.1,0.5,0,21.1,18.3,18.4,18.2,11.8,12,15.8,13.8,0,0,0,136.1
6.4,0,-0.1066667,1969.56,7338.01286,0.16,0,-179.87,1,0,-1.3,-2.6,-6.7,-16.6,2.4,-4.7,44.3,0,0,0.4,0,0,5.6,-144,4.6,-91.7,0,0,135.7,0,0,0,0,0,0,192,183,0.018,0.154,0.018,0,0.397,0,0,1,8.8,1,0,0,0,286.5,343.8,12.3,9.9,1.9,0,0,0,0,0,0,0,0,0,0,0,0,0,0,143.6,0,-0.5,0.2,-0.6,21.1,18.3,18.4,18.2,11.8,12.1,15.7,13.6,0,0,0,136
6.5,0,-0.1083333,1969.56,7338.01286,0.16,0,-179.87,1,0,-1.3,-1.8,-7,-16.9,2.4,-4.7,44.2,0,0,1.1,0,0,5.9,-141,4.8,-92.1,0,0,135.8,0,0,0,0,0,0,192,183,0.018,0.154,0.017,0,0.369,0,0,1,8.8,1,0,0,0,286.5,343.8,12.1,9.6,1.9,0,0,0,0,0,0,0,0,0,0,0,0,0,0,143.7,0,-0.5,-0.2,0,21.1,18.3,18.4,18.2,12,12.3,15.5,13.3,0,0,0,136.3
6.6,0,-0.11,1969.56,7338.01286,0.04,0,-171.92,1,0,-0.8,-2.2,-7,-16.9,2.3,-4.6,44.1,0,0,1.1,0,0,5.9,-141,4.8,-92.1,0,0,143.9,0,0,0,0,0,0,192,183,0.018,0.154,0.018,0,0.394,0,0,1,8.8,1,0,0,0,286.5,343.8,12,9.4,1.7,0,0,0,0,0,0,0,0,0,0,0,0,0,0,143.6,0,-0.2,-0.2,0,21.1,18.3,18.4,18.2,12.1,12.4,15.4,13.1,0,0,0,136.2
6.7,0,-0.1116667,1969.56,7338.01286,0.04,0,-171.92,1,0,-0.8,-2.2,-7,-16.9,2.4,-4.6,44,0,0,1,0,0,5.9,-141,4.8,-92.1,0,0,144,0,0,0,0,0,0,192,183,0.018,0.154,0.017,0,0.378,0,0,1,8.8,1,0,0,0,286.5,343.8,11.9,9.2,1.6,0,0,0,0,0,0,0,0,0,0,0,0,0,0,143.7,0,0.1,-0.6,-0.2,21,18.3,18.4,18.2,12.1,12.5,15.4,13,0,0,0,136.1
6.8,0,-0.1133333,1969.56,7338.01286,0.16,0.02,171.47,1,0,-0.3,-2.6,-7,-16.3,2.4,-4.7,44,0,0,0.3,0,0,7.6,-150,5,-94.2,0,0,127.5,0,0,0,0,0,0,192,183,0.018,0.154,0.018,0,0.49,0,0,1,8.8,1,0,0,0,286.5,343.8,11.9,9.4,1.6,0,0,0,0,0,0,0,0,0,0,0,0,0,0,143.6,0,0.5,-0.2,-0.3,21.1,18.3,18.4,18.2,12.1,12.4,15.4,13.1,0,0,0,138.2
6.9,0,-0.115,1969.56,7338.01286,0.16,0.02,171.47,1,0,-0.3,-2.6,-6.4,-17.5,2.4,-4.6,43.9,0,0,0.4,0,0,7.6,-150,5,-94.2,0,0,127.5,0,0,0,0,0,0,192,183,0.018,0.154,0.018,0,0.489,0,0,1,8.8,1,0,0,0,286.5,343.8,12,9.7,1.7,0,0,0,0,0,0,0,0,0,0,0,0,0,0,143.8,0,-0.1,0.2,-0.7,21.1,18.3,18.4,18.2,12,12.2,15.5,13.4,0,0,0,138.1
7,0,-0.1166667,1969.56,7338.01287,0.16,0,171.47,1,0,-0.8,-2.8,-6.3,-17.6,2.3,-4.7,43.9,0,0,1,0,0,7.5,-146,5.3,-95.1,0,0,127.5,0,0,0,0,0,0,192,183,0.018,0.154,0.018,0,0.373,0,0,1,8.8,1,0,0,0,286.5,343.8,12,10,1.7,0,0,0,0,0,0,0,0,0,0,0,0,0,0,143.7,0,0,-0.5,0,21.1,18.3,18.4,18.2,12,12.1,15.5,13.7,0,0,0,139
7.1,0,-0.1183333,1969.56,7338.01287,0.09,-0.08,-89.46,1,0,-0.5,-2.7,-6.9,-16.5,2.3,-4.7,43.9,0,0,0.2,0,0,7.5,-146,5.3,-95.1,0,0,-133.4,0,0,0,0,0,0,192,183,0.018,0.154,0.018,0,0.257,0,0,1,8.8,1,0,0,0,286.5,343.8,12,10.2,1.6,0,0,0,0,0,0,0,0,0,0,0,0,0,0,143.5,0,-0.4,-0.5,0.1,21.1,18.3,18.4,18.2,12,12,15.5,13.9,0,0,0,139
7.2,0,-0.12,1969.56,7338.01287,0.09,-0.08,-89.46,1,0,-1.8,-1.8,-6.3,-17.5,2.3,-4.7,43.9,0,0,1.1,0,0,7.5,-146,5.3,-95.1,0,0,-133.4,0,0,0,0,0,0,192,183,0.018,0.154,0.017,0,0.266,0,0,1,8.8,1,0,0,0,286.5,343.8,12,10,1.6,0,0,0,0,0,0,0,0,0,0,0,0,0,0,143.8,0,0,0.2,-0.2,21.1,18.3,18.4,18.2,12,12.1,15.5,13.7,0,0,0,139
7.3,0,-0.1216667,1969.56,7338.01288,0.07,-0.04,-132.42,1,0,-0.6,-1.9,-6.5,-17.4,2.3,-4.7,43.9,0,0,0.2,0,0,6.3,-155,5.3,-97,0,0,-176.3,0,0,0,0,0,0,192,183,0.018,0.154,0.018,0,0.272,0,0,1,8.8,1,0,0,0,286.5,343.8,12,9.7,1.7,0,0,0,0,0,0,0,0,0,0,0,0,0,0,143.6,0,0.6,-0.1,0.1,21.1,18.3,18.4,18.2,12,12.2,15.5,13.4,0,0,0,140.9
7.4,0,-0.1233333,1969.56,7338.01288,0.07,-0.04,-132.42,1,0,-0.6,-1.9,-6.3,-17.2,2.4,-4.8,43.9,0,0,0.9,0,0,6.3,-155,5.3,-97,0,0,-176.3,0,0,0,0,0,0,192,183,0.018,0.154,0.018,0,0.268,0,0,1,8.8,1,0,0,0,286.5,343.8,12.1,9.2,1.7,0,0,0,0,0,0,0,0,0,0,0,0,0,0,143.6,0,0.2,0.5,-0.9,21.1,18.3,18.4,18.2,12,12.5,15.6,13,0,0,0,140.9
7.5,0,-0.125,1969.56,7338.01288,0.07,-0.04,-132.42,1,0,0.1,-3.3,-6.2,-16.7,2.4,-4.8,43.9,0,0,0.4,0,0,6.3,-155,5.3,-97,0,0,-176.3,0,0,0,0,0,0,192,183,0.018,0.154,0.017,0,0.259,0,0,1,8.8,1,0,0,0,286.5,343.8,12.1,9,1.8,0,0,0,0,0,0,0,0,0,0,0,0,0,0,143.7,0,-0.4,-0.1,0,21.1,18.3,18.4,18.2,11.9,12.6,15.6,12.8,0,0,0,140.9
7.6,0,-0.1266667,1969.56,7338.01288,0.16,-0.06,-161.05,1,0,-1.4,-2.3,-6.1,-17.3,2.3,-4.8,43.9,0,0,0.8,0,0,5.6,-152,5.3,-98.1,0,0,155.1,0,0,0,0,0,0,192,183,0.018,0.154,0.017,0,0.506,0,0,1,8.8,1,0,0,0,286.5,343.8,12.2,9.1,1.6,0,0,0,0,0,0,0,0,0,0,0,0,0,0,143.7,0,0.2,-0.1,0.4,21,18.3,18.4,18.2,11.9,12.5,15.6,12.9,0,0,0,142
7.7,0,-0.1283333,1969.56,7338.01289,0.16,-0.06,-161.05,1,0,-0.5,-3.2,-7.2,-16.7,2.3,-4.8,43.9,0,0,1.4,0,0,5.6,-152,5.3,-98.1,0,0,155,0,0,0,0,0,0,192,183,0.018,0.154,0.017,0,0.489,0,0,1,8.8,1,0,0,0,286.5,343.8,12.1,9.5,1.4,0,0,0,0,0,0,0,0,0,0,0,0,0,0,143.7,0,-0.2,0.1,-0.7,21.1,18.3,18.4,18.2,11.9,12.3,15.6,13.3,0,0,0,142
7.8,0,-0.13,1969.56,7338.01289,0.04,-0.04,-117.2,1,0,-1.6,-1.7,-7.2,-16.7,2.3,-4.8,44,0,0,0.6,0,0,5.7,-143,5.4,-98.1,0,0,-161.2,0,0,0,0,0,0,192,183,0.018,0.154,0.018,0,0.481,0,0,1,8.8,1,0,0,0,286.5,343.8,12,10,1.2,0,0,0,0,0,0,0,0,0,0,0,0,0,0,143.8,0,-0.1,0.5,0.3,21.1,18.3,18.4,18.2,12,12.1,15.5,13.7,0,0,0,142.1
7.9,0,-0.1316667,1969.56,7338.01289,0.04,-0.04,-117.2,1,0,-1.6,-1.7,-6.4,-17.5,2.3,-4.8,44,0,0,0.5,0,0,5.7,-143,5.4,-98.1,0,0,-161.2,0,0,0,0,0,0,192,183,0.018,0.154,0.017,0,0.495,0,0,1,8.8,1,0,0,0,286.5,343.8,11.8,10.3,1.2,0,0,0,0,0,0,0,0,0,0,0,0,0,0,143.6,0,-0.1,-0.5,0.8,21,18.3,18.4,18.2,12.1,11.9,15.3,14,0,0,0,142.1
8,0,-0.1333333,1969.56,7338.01289,0.04,-0.04,-117.2,1,0,-0.7,-1.9,-6.9,-17.2,2.3,-4.9,44,0,0,0.9,0,0,5.7,-143,5.4,-98.1,0,0,-161.2,0,0,0,0,0,0,192,183,0.018,0.154,0.018,0,0.372,0,0,1,8.8,1,0,0,0,286.5,343.8,11.7,10.4,1,0,0,0,0,0,0,0,0,0,0,0,0,0,0,143.6,0,0.5,0.1,-0.2,21.1,18.3,18.4,18.2,12.2,11.9,15.2,14,0,0,0,142.1
8.1,0,-0.135,1969.56,7338.01289,0.04,0.02,126.02,1,0,-1.8,-2.2,-6.9,-17.2,2.3,-5,44,0,0,1.1,0,0,5.1,-134,5.3,-97.3,0,0,82,0,0,0,0,0,0,192,183,0.018,0.154,0.018,0,0.263,0,0,1,8.8,1,0,0,0,286.5,343.8,11.5,10.1,1.1,0,0,0,0,0,0,0,0,0,0,0,0,0,0,143.7,0,-0.5,-0.2,-0.2,21.1,18.3,18.4,18.2,12.3,12,15,13.8,0,0,0,141.3
8.2,0,-0.1366667,1969.56,7338.01289,0.04,0.02,126.02,1,0,-1.8,-2.2,-6.5,-17.1,2.3,-5,44,0,0,1.3,0,0,5.1,-134,5.3,-97.3,0,0,82,0,0,0,0,0,0,192,183,0.018,0.154,0.018,0,0.268,0,0,1,8.8,1,0,0,0,286.5,343.8,11.5,9.6,1,0,0,0,0,0,0,0,0,0,0,0,0,0,0,143.7,0,0.2,-0.5,0.5,21.1,18.3,18.4,18.1,12.3,12.3,15,13.3,0,0,0,141.3
8.3,0,-0.1383333,1969.56,7338.01289,0.16,0.1,133.25,1,0,-0.8,-2.7,-6.6,-17.1,2.3,-5,44,0,0,0.8,0,0,5.2,-134,5.3,-96.6,0,0,89.3,0,0,0,0,0,0,192,183,0.018,0.154,0.018,0,0.274,0,0,1,8.8,1,0,0,0,286.5,343.8,11.7,9.2,0.9,0,0,0,0,0,0,0,0,0,0,0,0,0,0,143.7,0,0.5,0.1,-0.2,21.1,18.3,18.4,18.2,12.2,12.5,15.2,13,0,0,0,140.6
8.4,0,-0.14,1969.56,7338.01289,0.16,0.1,133.25,1,0,-0.8,-2.7,-6,-17.5,2.2,-4.9,44,0,0,0.2,0,0,5.2,-134,5.3,-96.6,0,0,89.3,0,0,0,0,0,0,192,183,0.018,0.154,0.018,0,0.274,0,0,1,8.8,1,0,0,0,286.5,343.8,12,9.1,1,0,0,0,0,0,0,0,0,0,0,0,0,0,0,143.8,0,-0.1,-0.2,0.1,21.1,18.3,18.4,18.1,12,12.6,15.5,12.9,0,0,0,140.6
8.5,0,-0.1416667,1969.56,7338.01289,0.16,0.1,133.25,1,0,-0.2,-3.1,-6,-17.5,2.2,-4.9,43.9,0,0,0.3,0,0,5.2,-134,5.3,-96.6,0,0,89.3,0,0,0,0,0,0,192,183,0.018,0.154,0.018,0,0.269,0,0,1,8.8,1,0,0,0,286.5,343.8,12.3,9.3,1.4,0,0,0,0,0,0,0,0,0,0,0,0,0,0,143.5,0,-0.1,-0.2,0.1,21.1,18.3,18.4,18.2,11.8,12.4,15.8,13.1,0,0,0,140.5
8.6,0,-0.1433333,1969.56,7338.01289,0.02,0,152.65,1,0,-0.2,-3.1,-6.1,-17.5,2.1,-4.8,43.9,0,0,0.3,0,0,5.3,-145,5.3,-96.9,0,0,108.7,0,0,0,0,0,0,192,183,0.018,0.154,0.018,0,0.264,0,0,1,8.8,1,0,0,0,286.5,343.8,12.5,9.7,1.8,0,0,0,0,0,0,0,0,0,0,0,0,0,0,143.6,0,-0.4,-0.1,-0.3,21.1,18.3,18.4,18.1,11.7,12.2,15.9,13.4,0,0,0,140.8
8.7,0,-0.145,1969.56,7338.0129,0.02,0,152.65,1,0,-0.2,-3,-5.1,-17.4,2.1,-4.8,43.9,0,0,0.4,0,0,5.3,-145,5.3,-96.9,0,0,108.7,0,0,0,0,0,0,192,183,0.018,0.154,0.018,0,0.261,0,0,1,8.8,1,0,0,0,286.5,343.8,12.3,10,1.8,0,0,0,0,0,0,0,0,0,0,0,0,0,0,143.5,0,-0.4,0.2,-0.2,21.1,18.3,18.4,18.1,11.8,12.1,15.8,13.7,0,0,0,140.8
8.8,0,-0.1466667,1969.56,7338.0129,0.13,-0.1,-60.88,1,0,-1.8,-1.6,-7.6,-16.5,2,-4.8,43.8,0,0,1.6,0,0,5.3,-151,5.3,-97.9,0,0,-104.7,0,0,0,0,0,0,192,183,0.018,0.154,0.017,0,0.261,0,0,1,8.8,1,0,0,0,286.5,343.8,12,10.1,1.5,0,0,0,0,0,0,0,0,0,0,0,0,0,0,143.6,0,0,-0.1,0,21.1,18.3,18.4,18.2,12,12,15.5,13.8,0,0,0,141.7
8.9,0,-0.1483333,1969.56,7338.0129,0.13,-0.1,-60.88,1,0,-1.8,-1.6,-7.4,-16.5,2,-4.8,43.8,0,0,1.2,0,0,5.3,-151,5.3,-97.9,0,0,-104.7,0,0,0,0,0,0,192,183,0.018,0.154,0.018,0,0.258,0,0,1,8.8,1,0,0,0,286.5,343.8,11.7,9.9,1.2,0,0,0,0,0,0,0,0,0,0,0,0,0,0,143.7,0,0.2,0.5,-0.2,21.1,18.3,18.4,18.2,12.2,12.1,15.2,13.6,0,0,0,141.7
9,0,-0.15,1969.56,7338.0129,0.13,-0.1,-60.88,1,0,-1.3,-1.9,-7.4,-16.5,2,-4.8,43.8,0,0,1.4,0,0,5.3,-151,5.3,-97.9,0,0,-104.7,0,0,0,0,0,0,192,183,0.018,0.154,0.017,0,0.254,0,0,1,8.8,1,0,0,0,286.5,343.8,11.5,9.6,1.2,0,0,0,0,0,0,0,0,0,0,0,0,0,0,143.6,0,0.6,-0.1,0.2,21.1,18.3,18.4,18.2,12.3,12.3,15,13.3,0,0,0,141.7
9.1,0,-0.1516667,1969.56,7338.0129,0.04,0,-15.35,1,0,-1.3,-1.9,-7,-16.6,2.1,-4.9,43.7,0,0,1.1,0,0,5.3,-151,5.3,-97.9,0,0,-59.1,0,0,0,0,0,0,192,183,0.018,0.154,0.017,0,0.258,0,0,1,8.8,1,0,0,0,286.5,343.8,11.5,9.4,1.2,0,0,0,0,0,0,0,0,0,0,0,0,0,0,143.7,0,0,0.2,-0.1,21.1,18.3,18.4,18.1,12.4,12.4,15,13.1,0,0,0,141.6
9.2,0,-0.1533333,1969.56,7338.0129,0.04,0,-15.35,1,0,-1.1,-1.9,-6.5,-17.2,2.1,-4.9,43.7,0,0,1.2,0,0,6,-144,5.4,-98.2,0,0,-59.1,0,0,0,0,0,0,192,183,0.018,0.154,0.018,0,0.259,0,0,1,8.8,1,0,0,0,286.5,343.8,11.6,9.2,1,0,0,0,0,0,0,0,0,0,0,0,0,0,0,143.6,0,0.2,-0.1,-0.2,21.1,18.3,18.4,18.1,12.3,12.5,15.1,13,0,0,0,141.9
9.3,0,-0.155,1969.56,7338.0129,0.04,-0.04,-106.66,1,0,-0.4,-2.9,-6.3,-17.5,2.2,-4.9,43.7,0,0,0.5,0,0,6,-144,5.4,-98.2,0,0,-150.4,0,0,0,0,0,0,192,183,0.018,0.154,0.018,0,0.262,0,0,1,8.8,1,0,0,0,286.5,343.8,11.7,9.3,0.8,0,0,0,0,0,0,0,0,0,0,0,0,0,0,143.8,0,-0.1,0.2,0,21.1,18.3,18.4,18.2,12.2,12.5,15.2,13,0,0,0,141.9
9.4,0,-0.1566667,1969.56,7338.0129,0.04,-0.04,-106.66,1,0,-0.4,-2.9,-6.3,-17.5,2.2,-4.9,43.7,0,0,1.1,0,0,7.8,-151,5.6,-99.5,0,0,-150.4,0,0,0,0,0,0,192,183,0.018,0.154,0.018,0,0.264,0,0,1,8.8,1,0,0,0,286.5,343.8,11.9,9.3,0.7,0,0,0,0,0,0,0,0,0,0,0,0,0,0,143.8,0,-0.1,-0.5,0.4,21.1,18.3,18.4,18.2,12.1,12.4,15.4,13.1,0,0,0,143.2
9.5,0,-0.1583333,1969.56,7338.0129,0.04,-0.04,-106.66,1,0,-0.4,-2.9,-6.8,-16.8,2.2,-4.9,43.7,0,0,1.3,0,0,7.8,-151,5.6,-99.5,0,0,-150.4,0,0,0,0,0,0,192,183,0.018,0.154,0.017,0,0.263,0,0,1,8.8,1,0,0,0,286.5,343.8,12,9.6,0.7,0,0,0,0,0,0,0,0,0,0,0,0,0,0,143.6,0,-0.5,0.1,-0.2,21.1,18.3,18.4,18.2,12,12.3,15.4,13.3,0,0,0,143.2
9.6,0,-0.16,1969.56,7338.0129,0.04,-0.04,-97.74,1,0,-1.1,-2.3,-6.8,-16.8,2.2,-4.9,43.7,0,0,1.5,0,0,7.8,-151,5.6,-99.5,0,0,-141.4,0,0,0,0,0,0,192,183,0.018,0.154,0.017,0,0.261,0,0,1,8.8,1,0,0,0,286.5,343.8,11.9,9.7,0.7,0,0,0,0,0,0,0,0,0,0,0,0,0,0,143.7,0,0.2,-0.2,0,21.1,18.3,18.4,18.2,12.1,12.1,15.3,13.7,0,0,0,143.2
9.7,0,-0.1616667,1969.56,7338.0129,0.04,-0.04,-97.74,1,0,-1.1,-2.3,-7.1,-16.2,2.2,-4.9,43.6,0,0,1.1,0,0,8.1,-150,5.9,-100.4,0,0,-141.4,0,0,0,0,0,0,192,183,0.018,0.154,0.018,0,0.261,0,0,1,8.8,1,0,0,0,286.5,343.8,11.7,10.3,1,0,0,0,0,0,0,0,0,0,0,0,0,0,0,143.6,0,-0.1,0.1,-0.2,21.1,18.3,18.4,18.1,12.2,11.9,15.2,13.9,0,0,0,144
9.8,0,-0.1633333,1969.56,7338.0129,0.04,-0.04,-124.56,1,0,-1.5,-1.9,-7.2,-16.1,2.1,-4.9,43.6,0,0,1.3,0,0,8.1,-150,5.9,-100.4,0,0,-168.2,0,0,0,0,0,0,192,183,0.018,0.154,0.017,0,0.261,0,0,1,8.8,1,0,0,0,286.5,343.8,11.7,10.3,1.2,0,0,0,0,0,0,0,0,0,0,0,0,0,0,143.4,0,-0.5,0.1,0.4,21.1,18.3,18.4,18.1,12.2,11.9,15.1,14,0,0,0,144
9.9,0,-0.165,1969.56,7338.01291,0.04,-0.04,-124.56,1,0,-1.5,-1.9,-7.2,-16.1,2.1,-4.9,43.5,0,0,1,0,0,8.1,-150,5.9,-100.4,0,0,-168.2,0,0,0,0,0,0,192,183,0.018,0.154,0.018,0,0.264,0,0,1,8.8,1,0,0,0,286.5,343.8,11.7,10,1.4,0,0,0,0,0,0,0,0,0,0,0,0,0,0,143.6,0,-0.1,0,-0.6,21.1,18.3,18.4,18.2,12.2,12,15.2,13.8,0,0,0,143.9
10,0,-0.1666667,1969.56,7338.01291,0.04,-0.04,-124.56,1,0,-1.5,-1.9,-6.7,-16.8,2.1,-4.9,43.5,0,0,0.5,0,0,7.9,-148,6,-100.9,0,0,-168.1,0,0,0,0,0,0,192,183,0.018,0.154,0.017,0,0.264,0,0,1,8.8,1,0,0,0,286.5,343.8,11.8,9.6,1.3,0,0,0,0,0,0,0,0,0,0,0,0,0,0,143.7,0,0.2,-0.2,0,21.1,18.3,18.4,18.1,12.2,12.3,15.3,13.3,0,0,0,144.4
10.1,0,-0.1683333,1969.56,7338.01291,0.04,0,-15,1,0,-0.8,-2.2,-6.3,-17.8,2,-4.9,43.5,0,0,0.9,0,0,7.9,-148,6,-100.9,0,0,-58.5,0,0,0,0,0,0,192,183,0.018,0.154,0.018,0,0.265,0,0,1,8.8,1,0,0,0,286.5,343.8,11.8,9.2,1.1,0,0,0,0,0,0,0,0,0,0,0,0,0,0,143.8,0,0.2,-0.2,0,21.1,18.3,18.4,18.1,12.1,12.5,15.3,13,0,0,0,144.4
10.2,0,-0.17,1969.56,7338.01291,0.04,0,-15,1,0,-0.5,-3,-7,-17.1,2,-5,43.5,0,0,0.3,0,0,7.7,-136,6.2,-99.9,0,0,-58.5,0,0,0,0,0,0,192,183,0.018,0.154,0.017,0,0.263,0,0,1,8.8,1,0,0,0,286.5,343.8,11.8,9.2,0.8,0,0,0,0,0,0,0,0,0,0,0,0,0,0,143.5,0,0.2,0,-0.2,21.1,18.3,18.4,18.1,12.2,12.5,15.3,13,0,0,0,143.4
10.3,0,-0.1716667,1969.56,7338.01291,0.04,-0.02,-142.84,1,0,-0.3,-2.7,-6,-17.6,2,-4.9,43.5,0,0,0.4,0,0,7.7,-136,6.2,-99.9,0,0,173.7,0,0,0,0,0,0,192,183,0.018,0.154,0.017,0,0.264,0,0,1,8.8,1,0,0,0,286.5,343.8,11.7,9.4,0.8,0,0,0,0,0,0,0,0,0,0,0,0,0,0,143.9,0,0.2,0.1,-0.2,21.1,18.3,18.4,18.1,12.2,12.4,15.2,13.1,0,0,0,143.4
10.4,0,-0.1733333,1969.56,7338.01291,0.04,-0.02,-142.84,1,0,-0.3,-2.7,-6.5,-17.9,2,-4.8,43.4,0,0,0.6,0,0,7.7,-136,6.2,-99.9,0,0,173.7,0,0,0,0,0,0,192,183,0.018,0.154,0.018,0,0.263,0,0,1,8.8,1,0,0,0,286.5,343.8,11.6,9.6,0.9,0,0,0,0,0,0,0,0,0,0,0,0,0,0,143.6,0,0.5,0,0.5,21.1,18.3,18.4,18.1,12.2,12.3,15.1,13.3,0,0,0,143.3
10.5,0,-0.175,1969.56,7338.01291,0.04,-0.02,-142.84,1,0,-0.4,-2.7,-6.6,-16.7,2,-4.8,43.4,0,0,0.9,0,0,7,-135,6.3,-99,0,0,173.7,0,0,0,0,0,0,192,183,0.018,0.154,0.018,0,0.265,0,0,1,8.8,1,0,0,0,286.5,343.8,11.6,9.8,0.9,0,0,0,0,0,0,0,0,0,0,0,0,0,0,143.4,0,-0.1,0.1,-0.2,21.1,18.3,18.4,18.1,12.2,12.2,15.1,13.5,0,0,0,142.4
10.6,0,-0.1766667,1969.56,7338.01291,0.09,0.08,57.74,1,0,-0.3,-3.4,-7.1,-16.6,1.9,-4.8,43.4,0,0,1.1,0,0,7,-135,6.3,-99,0,0,14.3,0,0,0,0,0,0,192,183,0.018,0.154,0.018,0,0.264,0,0,1,8.8,1,0,0,0,286.5,343.8,11.7,9.9,1.2,0,0,0,0,0,0,0,0,0,0,0,0,0,0,143.7,0,0.2,0.1,0.5,21.1,18.3,18.4,18.1,12.2,12.1,15.2,13.6,0,0,0,142.4
10.7,0,-0.1783333,1969.56,7338.01291,0.09,0.08,57.74,1,0,-1.4,-2.4,-7.1,-16.6,2,-4.8,43.4,0,0,1.2,0,0,7,-135,6.3,-99,0,0,14.3,0,0,0,0,0,0,192,183,0.018,0.154,0.018,0,0.26,0,0,1,8.8,1,0,0,0,286.5,343.8,11.8,9.8,1.2,0,0,0,0,0,0,0,0,0,0,0,0,0,0,143.7,0,-0.1,-0.2,-0.1,21.1,18.3,18.4,18.1,12.1,12.2,15.3,13.5,0,0,0,142.4
10.8,0,-0.18,1969.56,7338.0129,0.07,0.02,3.44,1,0,-1.4,-2,-7.1,-16.9,2,-4.8,43.5,0,0,1.2,0,0,7.3,-139,6.4,-98.6,0,0,-40,0,0,0,0,0,0,192,183,0.018,0.154,0.018,0,0.258,0,0,1,8.8,1,0,0,0,286.5,343.8,11.8,9.6,1.3,0,0,0,0,0,0,0,0,0,0,0,0,0,0,143.9,0,-0.1,0.8,-0.5,21.1,18.3,18.4,18.1,12.1,12.3,15.3,13.4,0,0,0,142.1
10.9,0,-0.1816667,1969.56,7338.0129,0.07,0.02,3.44,1,0,-1.4,-2,-6.7,-16.8,2.1,-4.8,43.4,0,0,1.5,0,0,7.3,-139,6.4,-98.6,0,0,-40,0,0,0,0,0,0,192,183,0.018,0.154,0.018,0,0.254,0,0,1,8.8,1,0,0,0,286.5,343.8,11.9,9.4,1.1,0,0,0,0,0,0,0,0,0,0,0,0,0,0,143.6,0,0.2,0.5,-0.2,21.1,18.3,18.4,18.1,12.1,12.4,15.4,13.2,0,0,0,142
11,0,-0.1833333,1969.56,7338.01289,0.07,0.02,3.44,1,0,-0.9,-2.4,-7.3,-16.9,2.1,-4.8,43.5,0,0,0.2,0,0,7.6,-148,6.5,-99.3,0,0,-40,0,0,0,0,0,0,192,183,0.018,0.154,0.018,0,0.258,0,0,1,8.8,1,0,0,0,286.5,343.8,11.9,9.4,1.3,0,0,0,0,0,0,0,0,0,0,0,0,0,0,143.7,0,-0.5,-0.2,0.5,21.1,18.3,18.4,18.2,12.1,12.4,15.4,13.2,0,0,0,142.8
11.1,0,-0.185,1969.56,7338.01289,0.04,0.04,86.97,1,0,-1.5,-1.5,-6.1,-17.7,2,-4.8,43.4,0,0,1.2,0,0,7.6,-148,6.5,-99.3,0,0,43.5,0,0,0,0,0,0,192,183,0.018,0.154,0.017,0,0.258,0,0,1,8.8,1,0,0,0,286.5,343.8,11.9,9.5,1.4,0,0,0,0,0,0,0,0,0,0,0,0,0,0,143.7,0,0.2,-0.5,-0.1,21.1,18.3,18.4,18.1,12.1,12.3,15.4,13.3,0,0,0,142.7
11.2,0,-0.1866667,1969.56,7338.01289,0.04,0.04,86.97,1,0,-0.5,-3,-7.1,-17.2,2,-4.8,43.4,0,0,0.6,0,0,7.6,-148,6.5,-99.3,0,0,43.5,0,0,0,0,0,0,192,183,0.018,0.154,0.018,0,0.259,0,0,1,8.8,1,0,0,0,286.5,343.8,11.7,9.5,1.4,0,0,0,0,0,0,0,0,0,0,0,0,0,0,143.7,0,0.2,-0.5,0.1,21.1,18.3,18.4,18.1,12.2,12.3,15.2,13.3,0,0,0,142.7
11.3,0,-0.1883333,1969.56,7338.01289,0.09,0.08,69.25,1,0,-0.7,-2.7,-6,-17.5,1.9,-4.8,43.4,0,0,0.8,0,0,6.7,-141,6.5,-99.2,0,0,25.8,0,0,0,0,0,0,192,183,0.018,0.154,0.018,0,0.441,0,0,1,8.8,1,0,0,0,286.5,343.8,11.5,9.6,1.2,0,0,0,0,0,0,0,0,0,0,0,0,0,0,143.7,0,0,-0.1,-0.5,21.1,18.3,18.4,18.1,12.3,12.3,15,13.4,0,0,0,142.6
11.4,0,-0.19,1969.56,7338.01289,0.09,0.08,69.25,1,0,-0.7,-2.7,-6.3,-16.8,1.9,-4.8,43.5,0,0,0.6,0,0,6.7,-141,6.5,-99.2,0,0,25.8,0,0,0,0,0,0,192,183,0.018,0.154,0.018,0,0.268,0,0,1,8.8,1,0,0,0,286.5,343.8,11.4,9.7,1,0,0,0,0,0,0,0,0,0,0,0,0,0,0,143.6,0,0.2,0.5,-0.2,21.1,18.3,18.4,18.1,12.4,12.2,15,13.5,0,0,0,142.7
11.5,0,-0.1916667,1969.56,7338.01288,0.09,0.08,69.25,1,0,-0.6,-2.9,-6.4,-16.8,1.8,-4.9,43.5,0,0,1.3,0,0,6.6,-147,6.5,-99.6,0,0,25.8,0,0,0,0,0,0,192,183,0.018,0.154,0.018,0,0.27,0,0,1,8.8,1,0,0,0,286.5,343.8,11.4,9.7,0.8,0,0,0,0,0,0,0,0,0,0,0,0,0,0,143.8,0,0,0.2,-0.5,21.1,18.3,18.4,18.1,12.4,12.2,14.9,13.5,0,0,0,143.1
11.6,0,-0.1933333,1969.56,7338.01288,0.04,0,-21.4,1,0,0,-3.3,-7.4,-16.5,1.9,-4.9,43.5,0,0,0.2,0,0,6.6,-147,6.5,-99.6,0,0,-64.9,0,0,0,0,0,0,192,183,0.018,0.154,0.018,0,0.273,0,0,1,8.8,1,0,0,0,286.5,343.8,11.5,9.6,0.7,0,0,0,0,0,0,0,0,0,0,0,0,0,0,143.6,0,-0.1,-0.1,0.1,21.1,18.3,18.4,18.2,12.3,12.3,15.1,13.4,0,0,0,143.1
11.7,0,-0.195,1969.56,7338.01288,0.04,0,-21.4,1,0,-0.7,-2.1,-6.5,-17.5,1.8,-4.9,43.6,0,0,0.8,0,0,6.6,-147,6.5,-99.6,0,0,-64.9,0,0,0,0,0,0,192,183,0.018,0.154,0.018,0,0.281,0,0,1,8.8,1,0,0,0,286.5,343.8,11.7,9.6,0.8,0,0,0,0,0,0,0,0,0,0,0,0,0,0,143.8,0,0.2,-0.5,1.3,21.2,18.3,18.4,18.2,12.2,12.3,15.2,13.3,0,0,0,143.2
11.8,0,-0.1966667,1969.56,7338.01288,0.02,0.02,80.33,1,0,-0.4,-2.5,-6.5,-16.3,1.8,-4.9,43.6,0,0,1.3,0,0,6.5,-139,6.5,-99.2,0,0,36.7,0,0,0,0,0,0,192,183,0.018,0.154,0.018,0,0.276,0,0,1,8.8,1,0,0,0,286.5,343.8,11.8,9.4,0.9,0,0,0,0,0,0,0,0,0,0,0,0,0,0,143.7,0,-0.8,-0.1,0.1,21.1,18.3,18.4,18.1,12.1,12.4,15.3,13.2,0,0,0,142.8
11.9,0,-0.1983333,1969.56,7338.01287,0.02,0.02,80.33,1,0,-0.4,-2.5,-7.4,-16.3,1.8,-5,43.6,0,0,0.9,0,0,6.5,-139,6.5,-99.2,0,0,36.7,0,0,0,0,0,0,192,183,0.018,0.154,0.017,0,0.265,0,0,1,8.8,1,0,0,0,286.5,343.8,11.8,9.5,0.8,0,0,0,0,0,0,0,0,0,0,0,0,0,0,143.9,0,0.2,-0.1,-0.5,21.1,18.3,18.4,18.1,12.1,12.3,15.3,13.2,0,0,0,142.8
12,0,-0.2,1969.56,7338.01287,0.02,0.02,80.33,1,0,-1.2,-1.7,-6.6,-17.2,1.9,-4.9,43.7,0,0,0.9,0,0,6.5,-139,6.5,-99.2,0,0,36.7,0,0,0,0,0,0,192,183,0.018,0.154,0.017,0,0.264,0,0,1,8.8,1,0,0,0,286.5,343.8,11.8,9.5,0.7,0,0,0,0,0,0,0,0,0,0,0,0,0,0,143.6,0,-0.4,-0.1,0.2,21.1,18.3,18.4,18.2,12.1,12.3,15.3,13.3,0,0,0,142.9
12.1,0,-0.2016667,1969.56,7338.01286,0.02,0,149.54,1,0,-1.2,-2.4,-6.7,-16.9,1.9,-4.9,43.7,0,0,0.9,0,0,6.9,-135,6.6,-98.4,0,0,105.9,0,0,0,0,0,0,192,183,0.018,0.154,0.018,0,0.256,0,0,1,8.8,1,0,0,0,286.5,343.8,11.7,9.7,0.8,0,0,0,0,0,0,0,0,0,0,0,0,0,0,143.8,0,0,-0.1,-0.1,21.1,18.3,18.4,18.1,12.2,12.2,15.2,13.4,0,0,0,142.1
12.2,0,-0.2033333,1969.56,7338.01286,0.02,0,149.54,1,0,-0.8,-1.9,-6.1,-17.2,1.9,-4.8,43.8,0,0,0.9,0,0,6.9,-135,6.6,-98.4,0,0,105.8,0,0,0,0,0,0,192,183,0.018,0.154,0.018,0,0.259,0,0,1,8.8,1,0,0,0,286.5,343.8,11.7,9.7,1,0,0,0,0,0,0,0,0,0,0,0,0,0,0,143.5,0,0,-0.5,0.2,21.1,18.3,18.4,18.1,12.2,12.2,15.2,13.4,0,0,0,142.2
12.3,0,-0.205,1969.56,7338.01286,0.02,0.02,108.75,1,0,-1,-2.4,-6.3,-16.9,2,-4.9,43.8,0,0,1.1,0,0,6.1,-129,6.5,-97.2,0,0,65,0,0,0,0,0,0,192,183,0.018,0.154,0.018,0,0.262,0,0,1,8.8,1,0,0,0,286.5,343.8,11.7,9.6,1,0,0,0,0,0,0,0,0,0,0,0,0,0,0,143.8,0,0,0.2,0.2,21.1,18.3,18.4,18.1,12.2,12.3,15.2,13.4,0,0,0,141
12.4,0,-0.2066667,1969.56,7338.01285,0.02,0.02,108.75,1,0,-1,-2.4,-6.5,-16.4,2,-4.8,43.8,0,0,1.1,0,0,6.1,-129,6.5,-97.2,0,0,65,0,0,0,0,0,0,192,183,0.018,0.154,0.018,0,0.262,0,0,1,8.8,1,0,0,0,286.5,343.8,11.7,9.6,1.3,0,0,0,0,0,0,0,0,0,0,0,0,0,0,143.6,0,0,0.2,0.2,21.1,18.3,18.4,18.1,12.2,12.3,15.2,13.3,0,0,0,141
12.5,0,-0.2083333,1969.56,7338.01285,0.02,0.02,108.75,1,0,-0.8,-2.2,-6.5,-16.6,2,-4.8,43.8,0,0,1.2,0,0,6.1,-129,6.5,-97.2,0,0,64.9,0,0,0,0,0,0,192,183,0.018,0.154,0.018,0,0.268,0,0,1,8.8,1,0,0,0,286.5,343.8,11.6,9.6,1.5,0,0,0,0,0,0,0,0,0,0,0,0,0,0,143.7,0,0.2,0.2,0.5,21.1,18.3,18.4,18.1,12.2,12.3,15.2,13.3,0,0,0,141
12.6,0,-0.21,1969.56,7338.01284,0.02,0,19.04,1,0,-1.5,-1.9,-6.5,-16.6,2,-4.8,43.8,0,0,0.7,0,0,6.1,-144,6.5,-97.4,0,0,-24.7,0,0,0,0,0,0,192,183,0.018,0.154,0.017,0,0.27,0,0,1,8.8,1,0,0,0,286.5,343.8,11.7,9.6,1.5,0,0,0,0,0,0,0,0,0,0,0,0,0,0,143.6,0,-0.1,0.1,-1.3,21.1,18.3,18.4,18.1,12.2,12.3,15.2,13.3,0,0,0,141.2
12.7,0,-0.2116667,1969.56,7338.01283,0.02,0,19.04,1,0,-1.5,-1.9,-6.7,-17.4,2,-4.8,43.8,0,0,1,0,0,6.1,-144,6.5,-97.4,0,0,-24.8,0,0,0,0,0,0,192,183,0.018,0.154,0.017,0,0.261,0,0,1,8.8,1,0,0,0,286.5,343.8,11.7,9.7,1.6,0,0,0,0,0,0,0,0,0,0,0,0,0,0,143.6,0,0.2,0.1,-0.2,21.1,18.3,18.4,18.1,12.2,12.3,15.2,13.4,0,0,0,141.2
12.8,0,-0.2133333,1969.56,7338.01283,0.07,0.02,15.92,1,0,-1.7,-1.9,-6.5,-17,2,-4.9,43.8,0,0,1.3,0,0,6.3,-141,6.5,-97.4,0,0,-27.8,0,0,0,0,0,0,192,183,0.018,0.154,0.017,0,0.263,0,0,1,8.8,1,0,0,0,286.5,343.8,11.6,9.7,1.2,0,0,0,0,0,0,0,0,0,0,0,0,0,0,143.7,0,0,-0.5,-0.2,21.1,18.3,18.4,18.1,12.2,12.2,15.1,13.5,0,0,0,141.2
12.9,0,-0.215,1969.56,7338.01283,0.07,0.02,15.92,1,0,-1.7,-1.9,-7.3,-16.9,2,-4.9,43.8,0,0,0.9,0,0,6.3,-141,6.5,-97.4,0,0,-27.8,0,0,0,0,0,0,192,183,0.018,0.154,0.018,0,0.26,0,0,1,8.8,1,0,0,0,286.5,343.8,11.6,9.6,0.7,0,0,0,0,0,0,0,0,0,0,0,0,0,0,143.8,0,0,0.5,-0.2,21.1,18.3,18.4,18.1,12.2,12.2,15.1,13.4,0,0,0,141.2
13,0,-0.2166667,1969.56,7338.01282,0.07,0.02,15.92,1,0,-1.6,-1.6,-6.7,-17.2,2,-4.9,43.8,0,0,0.9,0,0,6.3,-141,6.5,-97.4,0,0,-27.9,0,0,0,0,0,0,192,183,0.018,0.154,0.018,0,0.259,0,0,1,8.8,1,0,0,0,286.5,343.8,11.6,9.5,0.3,0,0,0,0,0,0,0,0,0,0,0,0,0,0,143.6,0,0,0.2,0.1,21.1,18.3,18.4,18.1,12.2,12.3,15.1,13.3,0,0,0,141.2
13.1,0,-0.2183333,1969.56,7338.01282,0.11,-0.06,-51.35,1,0,-2.1,-1.7,-6.4,-17.4,2,-5,43.8,0,0,0.5,0,0,5.6,-144,6.4,-97.7,0,0,-95.1,0,0,0,0,0,0,192,183,0.018,0.154,0.018,0,0.259,0,0,1,8.8,1,0,0,0,286.5,343.8,11.7,9.4,0.4,0,0,0,0,0,0,0,0,0,0,0,0,0,0,143.7,0,-0.4,0.2,0.1,21.1,18.3,18.4,18.2,12.2,12.4,15.1,13.2,0,0,0,141.5
13.2,0,-0.22,1969.56,7338.01282,0.11,-0.06,-51.35,1,0,-1.5,-2.4,-6.2,-17.6,2,-5,43.8,0,0,1.6,0,0,5.6,-144,6.4,-97.7,0,0,-95.1,0,0,0,0,0,0,192,183,0.018,0.154,0.018,0,0.263,0,0,1,8.8,1,0,0,0,286.5,343.8,11.7,9.4,0.7,0,0,0,0,0,0,0,0,0,0,0,0,0,0,143.6,0,0,0.2,-0.2,21.1,18.3,18.4,18.2,12.2,12.4,15.1,13.2,0,0,0,141.5
13.3,0,-0.2216667,1969.56,7338.01281,0.25,0.14,32.61,1,0,-0.8,-1.5,-7.4,-16.2,2.1,-5,43.8,0,0,0.9,0,0,5.6,-144,6.4,-97.7,0,0,-11.2,0,0,0,0,0,0,192,183,0.018,0.154,0.018,0,0.272,0,0,1,8.8,1,0,0,0,286.5,343.8,11.7,9.4,0.8,0,0,0,0,0,0,0,0,0,0,0,0,0,0,143.5,0,0.2,0.2,-0.5,21.1,18.3,18.4,18.2,12.2,12.4,15.1,13.2,0,0,0,141.5
13.4,0,-0.2233333,1969.56,7338.0128,0.25,0.14,32.61,1,0,-0.8,-1.5,-6.6,-17,2.2,-5,43.8,0,0,1.2,0,0,5.7,-141,6.3,-97.8,0,0,-11.2,0,0,0,0,0,0,192,183,0.018,0.154,0.017,0,0.277,0,0,1,8.8,1,0,0,0,286.5,343.8,11.7,9.6,1.1,0,0,0,0,0,0,0,0,0,0,0,0,0,0,143.6,0,0.2,-0.5,1.6,21.1,18.3,18.4,18.1,12.2,12.3,15.2,13.2,0,0,0,141.6
13.5,0,-0.225,1969.56,7338.01279,0.25,0.14,32.61,1,0,-1.1,-1.9,-7,-16.5,2.1,-5,43.8,0,0,1.1,0,0,5.7,-141,6.3,-97.8,0,0,-11.2,0,0,0,0,0,0,192,183,0.018,0.154,0.018,0,0.276,0,0,1,8.8,1,0,0,0,286.5,343.8,11.7,9.7,1.3,0,0,0,0,0,0,0,0,0,0,0,0,0,0,143.7,0,0,-0.5,-0.2,21.1,18.3,18.4,18.2,12.2,12.3,15.2,13.2,0,0,0,141.6
13.6,0,-0.2266667,1969.56,7338.01279,0.02,0.02,44.29,1,0,-0.7,-1.9,-6.3,-17.7,2.1,-5,43.8,0,0,0.9,0,0,5.7,-141,6.3,-97.8,0,0,0.5,0,0,0,0,0,0,192,183,0.018,0.154,0.018,0,0.268,0,0,1,8.8,1,0,0,0,286.5,343.8,11.8,9.8,1.4,0,0,0,0,0,0,0,0,0,0,0,0,0,0,143.7,0,0,-0.4,0.1,21.1,18.3,18.4,18.2,12.2,12.2,15.3,13.5,0,0,0,141.6
13.7,0,-0.2283333,1969.56,7338.01279,0.02,0.02,44.29,1,0,-1.4,-2.2,-6.3,-17.7,2.1,-4.9,43.8,0,0,0.8,0,0,5.7,-138,6.2,-97.5,0,0,0.5,0,0,0,0,0,0,192,183,0.018,0.154,0.018,0,0.271,0,0,1,8.8,1,0,0,0,286.5,343.8,11.8,9.8,1.2,0,0,0,0,0,0,0,0,0,0,0,0,0,0,143.8,0,0,0,-0.2,21.1,18.3,18.4,18.2,12.1,12.2,15.3,13.5,0,0,0,141.3
13.8,0,-0.23,1969.56,7338.01279,0.07,-0.04,-58.78,1,0,-1.2,-2.4,-6.7,-17.1,2,-4.9,43.8,0,0,1.6,0,0,5.7,-138,6.2,-97.5,0,0,-102.6,0,0,0,0,0,0,192,183,0.018,0.154,0.017,0,0.376,0,0,1,8.8,1,0,0,0,286.5,343.8,11.7,9.7,0.9,0,0,0,0,0,0,0,0,0,0,0,0,0,0,143.6,0,0,0.5,-0.2,21.1,18.3,18.4,18.2,12.1,12.2,15.3,13.5,0,0,0,141.3
13.9,0,-0.2316667,1969.56,7338.01278,0.07,-0.04,-58.78,1,0,-1.2,-2.4,-7.7,-16.3,2,-4.8,43.8,0,0,1.5,0,0,5.5,-141,6.2,-97.5,0,0,-102.6,0,0,0,0,0,0,192,183,0.018,0.154,0.018,0,0.482,0,0,1,8.8,1,0,0,0,286.5,343.8,11.6,9.6,0.9,0,0,0,0,0,0,0,0,0,0,0,0,0,0,143.8,0,-0.1,-0.1,0.1,21.1,18.3,18.4,18.2,12.2,12.2,15.2,13.4,0,0,0,141.3
14,0,-0.2333333,1969.56,7338.01278,0.07,-0.04,-58.78,1,0,-1.1,-1.9,-7,-16.7,2.1,-4.9,43.8,0,0,0.9,0,0,5.5,-141,6.2,-97.5,0,0,-102.6,0,0,0,0,0,0,192,183,0.018,0.154,0.018,0,0.477,0,0,1,8.8,1,0,0,0,286.5,343.8,11.6,9.5,1,0,0,0,0,0,0,0,0,0,0,0,0,0,0,143.6,0,-0.1,-0.1,0.1,21.1,18.3,18.4,18.2,12.2,12.3,15.1,13.3,0,0,0,141.3
14.1,0,-0.235,1969.56,7338.01277,0.16,0.12,115.53,1,0,-1.6,-1.8,-6.6,-17.6,2.1,-5,43.8,0,0,1.2,0,0,5.5,-141,6.2,-97.5,0,0,71.7,0,0,0,0,0,0,192,183,0.018,0.154,0.018,0,0.511,0,0,1,8.8,1,0,0,0,286.5,343.8,11.6,9.4,1.2,0,0,0,0,0,0,0,0,0,0,0,0,0,0,143.7,0,0.2,0,0.1,21.2,18.3,18.4,18.2,12.2,12.3,15.1,13.3,0,0,0,141.3
14.2,0,-0.2366667,1969.56,7338.01277,0.16,0.12,115.53,1,0,-0.4,-2.3,-5.3,-16.8,2.2,-5,43.8,0,0,1.4,0,0,5.4,-138,6.1,-97.2,0,0,71.7,0,0,0,0,0,0,192,183,0.018,0.154,0.018,0,0.261,0,0,1,8.8,1,0,0,0,286.5,343.8,11.6,9.3,1.3,0,0,0,0,0,0,0,0,0,0,0,0,0,0,143.8,0,-0.1,0.2,-0.2,21.1,18.3,18.4,18.2,12.3,12.4,15.1,13.1,0,0,0,141
14.3,0,-0.2383333,1969.56,7338.01277,0.07,0.06,89.67,1,0,-1.1,-1.9,-6.6,-17.2,2.2,-5.1,43.8,0,0,1.5,0,0,5.4,-138,6.1,-97.2,0,0,45.8,0,0,0,0,0,0,192,183,0.018,0.154,0.018,0,0.271,0,0,1,8.8,1,0,0,0,286.5,343.8,11.6,9.3,1.1,0,0,0,0,0,0,0,0,0,0,0,0,0,0,143.6,0,0.2,-0.5,-0.5,21.1,18.3,18.4,18.1,12.2,12.4,15.1,13.1,0,0,0,141
14.4,0,-0.24,1969.56,7338.01276,0.07,0.06,89.67,1,0,-1.1,-1.9,-7.4,-17.2,2.1,-5.1,43.8,0,0,0.9,0,0,5.4,-138,6.1,-97.2,0,0,45.8,0,0,0,0,0,0,192,183,0.018,0.154,0.018,0,0.275,0,0,1,8.8,1,0,0,0,286.5,343.8,11.7,9.4,0.8,0,0,0,0,0,0,0,0,0,0,0,0,0,0,143.4,0,0.2,0.2,0.1,21.1,18.3,18.4,18.1,12.2,12.4,15.1,13.1,0,0,0,141
14.5,0,-0.2416667,1969.56,7338.01276,0.07,0.06,89.67,1,0,-2,-1.5,-7,-17.2,2.1,-5.1,43.8,0,0,0.8,0,0,6.1,-124,6.1,-95.5,0,0,45.8,0,0,0,0,0,0,192,183,0.018,0.154,0.017,0,0.277,0,0,1,8.8,1,0,0,0,286.5,343.8,11.8,9.6,0.6,0,0,0,0,0,0,0,0,0,0,0,0,0,0,143.9,0,-0.1,-0.1,0,21.1,18.3,18.4,18.2,12.1,12.4,15.3,13.2,0,0,0,139.3
14.6,0,-0.2433333,1969.56,7338.01276,0.07,0.04,47.78,1,0,-2.2,-1.5,-6.9,-16.4,2.1,-5.1,43.8,0,0,1,0,0,6.1,-124,6.1,-95.5,0,0,4,0,0,0,0,0,0,192,183,0.018,0.154,0.018,0,0.279,0,0,1,8.8,1,0,0,0,286.5,343.8,11.8,9.7,0.6,0,0,0,0,0,0,0,0,0,0,0,0,0,0,143.7,0,-0.1,-0.5,0.7,21.1,18.3,18.4,18.2,12.1,12.2,15.3,13.4,0,0,0,139.3
14.7,0,-0.245,1969.56,7338.01276,0.07,0.04,47.78,1,0,-0.5,-2.8,-7.1,-16.7,2.1,-5,43.8,0,0,0.7,0,0,5.2,-131,6,-94.8,0,0,4,0,0,0,0,0,0,192,183,0.018,0.154,0.018,0,0.271,0,0,1,8.8,1,0,0,0,286.5,343.8,11.8,9.9,0.7,0,0,0,0,0,0,0,0,0,0,0,0,0,0,143.7,0,-0.5,-0.1,0.1,21.1,18.3,18.4,18.1,12.1,12.2,15.3,13.4,0,0,0,138.6
14.8,0,-0.2466667,1969.56,7338.01275,0.16,0,-1.48,1,0,0.2,-3,-6.4,-16.9,2.1,-5,43.8,0,0,0.5,0,0,5.2,-131,6,-94.8,0,0,-45.3,0,0,0,0,0,0,192,183,0.018,0.154,0.018,0,0.272,0,0,1,8.8,1,0,0,0,286.5,343.8,11.8,9.8,0.8,0,0,0,0,0,0,0,0,0,0,0,0,0,0,143.6,0,-0.1,0.5,0.1,21,18.3,18.4,18.1,12.1,12.1,15.3,13.6,0,0,0,138.6
14.9,0,-0.2483333,1969.56,7338.01275,0.16,0,-1.48,1,0,0.2,-3,-6.7,-16.8,2.1,-5,43.8,0,0,1.4,0,0,5.2,-131,6,-94.8,0,0,-45.3,0,0,0,0,0,0,192,183,0.018,0.154,0.018,0,0.261,0,0,1,8.8,1,0,0,0,286.5,343.8,11.8,9.7,0.8,0,0,0,0,0,0,0,0,0,0,0,0,0,0,143.8,0,0.6,0.2,-0.1,21.1,18.3,18.4,18.1,12.1,12.2,15.3,13.5,0,0,0,138.6
15,0,-0.25,1969.56,7338.01275,0.16,0.02,-1.48,1,0,-0.1,-3.1,-6.9,-16.6,2.2,-5.1,43.8,0,0,1.6,0,0,4,-152,5.8,-95.8,0,0,-45.3,0,0,0,0,0,0,192,183,0.018,0.154,0.017,0,0.259,0,0,1,8.8,1,0,0,0,286.5,343.8,11.7,9.6,1,0,0,0,0,0,0,0,0,0,0,0,0,0,0,143.7,0,-0.1,0.2,-0.2,21.1,18.3,18.4,18.1,12.1,12.2,15.3,13.5,0,0,0,139.6
15.1,0,-0.2516667,1969.56,7338.01274,0.04,0.02,37.69,1,0,-1.8,-1.7,-7.2,-16.4,2.2,-5.1,43.9,0,0,1,0,0,4,-152,5.8,-95.8,0,0,-6.2,0,0,0,0,0,0,192,183,0.018,0.154,0.017,0,0.263,0,0,1,8.8,1,0,0,0,286.5,343.8,11.7,9.4,1.2,0,0,0,0,0,0,0,0,0,0,0,0,0,0,143.7,0,0.2,0.1,0.5,21.1,18.3,18.4,18.1,12.2,12.3,15.2,13.2,0,0,0,139.7
15.2,0,-0.2533333,1969.56,7338.01274,0.04,0.02,37.69,1,0,-1.7,-1.4,-6.8,-17.2,2.2,-5.2,43.9,0,0,0.9,0,0,4,-152,5.8,-95.8,0,0,-6.2,0,0,0,0,0,0,192,183,0.018,0.154,0.018,0,0.261,0,0,1,8.8,1,0,0,0,286.5,343.8,11.6,9.4,1.2,0,0,0,0,0,0,0,0,0,0,0,0,0,0,143.7,0,0.2,-0.1,-0.2,21.1,18.3,18.4,18.1,12.2,12.4,15.1,13.2,0,0,0,139.7
15.3,0,-0.255,1969.56,7338.01274,0.22,0.14,35.4,1,0,-0.5,-2.8,-6.8,-16.4,2.2,-5.2,43.9,0,0,1,0,0,4,-164,5.6,-97.6,0,0,-8.5,0,0,0,0,0,0,192,183,0.018,0.154,0.017,0,0.261,0,0,1,8.8,1,0,0,0,286.5,343.8,11.5,9.3,1,0,0,0,0,0,0,0,0,0,0,0,0,0,0,143.9,0,-0.1,-0.1,0.7,21.1,18.3,18.4,18.1,12.2,12.4,15.1,13.2,0,0,0,141.5
15.4,0,-0.2566667,1969.56,7338.01273,0.22,0.14,35.4,1,0,-0.5,-2.8,-6.7,-17,2.2,-5.2,43.9,0,0,0.4,0,0,4,-164,5.6,-97.6,0,0,-8.5,0,0,0,0,0,0,192,183,0.018,0.154,0.018,0,0.263,0,0,1,8.8,1,0,0,0,286.5,343.8,11.4,9.3,0.8,0,0,0,0,0,0,0,0,0,0,0,0,0,0,143.9,0,0.2,0.2,-0.2,21.1,18.3,18.4,18.1,12.3,12.4,15,13.1,0,0,0,141.5
15.5,0,-0.2583333,1969.56,7338.01273,0.22,0.14,35.4,1,0,-1.3,-1.8,-6.3,-17.6,2.1,-5.1,44,0,0,0.9,0,0,4.2,-161,5.4,-99.2,0,0,-8.5,0,0,0,0,0,0,192,183,0.018,0.154,0.018,0,0.266,0,0,1,8.8,1,0,0,0,286.5,343.8,11.6,9.4,0.5,0,0,0,0,0,0,0,0,0,0,0,0,0,0,143.7,0,0.2,-0.2,0.4,21.1,18.3,18.4,18.1,12.3,12.4,15,13.1,0,0,0,143.2
15.6,0,-0.26,1969.56,7338.01273,0.09,-0.08,-85.77,1,0,-0.4,-3.1,-6.3,-17.6,2,-5.1,44,0,0,0.9,0,0,4.2,-161,5.4,-99.2,0,0,-129.7,0,0,0,0,0,0,192,183,0.018,0.154,0.018,0,0.424,0,0,1,8.8,1,0,0,0,286.5,343.8,11.8,9.6,0.5,0,0,0,0,0,0,0,0,0,0,0,0,0,0,143.6,0,-0.5,-0.5,-0.3,21.1,18.3,18.4,18.2,12.3,12.4,15,13.1,0,0,0,143.2
15.7,0,-0.2616667,1969.56,7338.01273,0.09,-0.08,-85.77,1,0,-0.4,-3.1,-6.4,-17.3,2,-5,44,0,0,1.5,0,0,4.2,-161,5.4,-99.2,0,0,-129.8,0,0,0,0,0,0,192,183,0.018,0.154,0.017,0,0.273,0,0,1,8.8,1,0,0,0,286.5,343.8,12.1,9.8,0.6,0,0,0,0,0,0,0,0,0,0,0,0,0,0,143.7,0,-0.2,-0.2,0,21.1,18.3,18.4,18.1,12,12.2,15.4,13.5,0,0,0,143.2
15.8,0,-0.2633333,1969.56,7338.01273,0.02,0.02,115.12,1,0,-1.4,-1.6,-7.1,-16.4,2.1,-5,44,0,0,0.9,0,0,3.7,-165,5.2,-100.7,0,0,71.1,0,0,0,0,0,0,192,183,0.018,0.154,0.018,0,0.273,0,0,1,8.8,1,0,0,0,286.5,343.8,12.2,9.9,1.1,0,0,0,0,0,0,0,0,0,0,0,0,0,0,143.7,0,-0.2,0,0,21.1,18.3,18.4,18.2,11.9,12.1,15.6,13.6,0,0,0,144.7
15.9,0,-0.265,1969.56,7338.01272,0.02,0.02,115.12,1,0,-1.4,-1.6,-6.8,-17.2,2.1,-5,44,0,0,1.5,0,0,3.7,-165,5.2,-100.7,0,0,71.1,0,0,0,0,0,0,192,183,0.018,0.154,0.018,0,0.272,0,0,1,8.8,1,0,0,0,286.5,343.8,12.2,9.8,1.4,0,0,0,0,0,0,0,0,0,0,0,0,0,0,143.5,0,-0.2,0.4,1,21.1,18.3,18.4,18.1,11.9,12.1,15.6,13.6,0,0,0,144.7
16,0,-0.2666667,1969.56,7338.01272,0.02,0.02,115.12,1,0,-1.3,-2.4,-7.3,-16.2,2.1,-5,44,0,0,1.1,0,0,3.7,-165,5.2,-100.7,0,0,71.1,0,0,0,0,0,0,192,183,0.018,0.154,0.018,0,0.27,0,0,1,8.8,1,0,0,0,286.5,343.8,11.9,9.6,1.2,0,0,0,0,0,0,0,0,0,0,0,0,0,0,143.6,0,-0.2,0,0,21.1,18.3,18.4,18.1,12,12.2,15.5,13.5,0,0,0,144.7
16.1,0,-0.2683333,1969.56,7338.01271,0.07,0.06,71.06,1,0,-1.5,-1.6,-6.7,-17.2,2.2,-5.1,44,0,0,0.2,0,0,3.6,-164,5,-102,0,0,27,0,0,0,0,0,0,192,183,0.018,0.154,0.018,0,0.266,0,0,1,8.8,1,0,0,0,286.5,343.8,11.7,9.3,0.8,0,0,0,0,0,0,0,0,0,0,0,0,0,0,143.5,0,-0.2,-0.3,0.4,21.1,18.3,18.4,18.1,12.1,12.4,15.3,13.2,0,0,0,146
16.2,0,-0.27,1969.56,7338.01271,0.07,0.06,71.06,1,0,-1.1,-2,-6.1,-17.8,2.2,-5.1,44.1,0,0,0.7,0,0,3.6,-164,5,-102,0,0,27,0,0,0,0,0,0,192,183,0.018,0.154,0.018,0,0.261,0,0,1,8.8,1,0,0,0,286.5,343.8,11.6,9.2,0.7,0,0,0,0,0,0,0,0,0,0,0,0,0,0,143.5,0,-0.2,0,0,21,18.3,18.4,18.1,12.1,12.4,15.3,13.2,0,0,0,146.1
16.3,0,-0.2716667,1969.56,7338.01271,0.09,0,164.39,1,0,-0.1,-2.4,-6.4,-17.2,2.1,-5.1,44.1,0,0,0.5,0,0,4,-171,4.9,-104,0,0,120.3,0,0,0,0,0,0,192,183,0.018,0.154,0.018,0,0.255,0,0,1,8.8,1,0,0,0,286.5,343.8,11.6,9.3,0.9,0,0,0,0,0,0,0,0,0,0,0,0,0,0,143.8,0,-0.2,-0.2,0.1,21.1,18.3,18.4,18.1,12.3,12.5,15.1,13,0,0,0,148.1
16.4,0,-0.2733333,1969.56,7338.0127,0.09,0,164.39,1,0,-0.1,-2.4,-5.8,-17.4,2.1,-5.1,44.2,0,0,0.7,0,0,4,-171,4.9,-104,0,0,120.3,0,0,0,0,0,0,192,183,0.018,0.154,0.017,0,0.376,0,0,1,8.8,1,0,0,0,286.5,343.8,11.7,9.5,1,0,0,0,0,0,0,0,0,0,0,0,0,0,0,143.6,0,-0.2,-0.6,0.2,21.1,18.3,18.4,18.1,12.2,12.4,15.1,13.2,0,0,0,148.2
16.5,0,-0.275,1969.56,7338.0127,0.09,0,164.39,1,0,-0.4,-2.4,-6.8,-17.2,2.1,-5.1,44.2,0,0,0.1,0,0,4,-171,4.9,-104,0,0,120.2,0,0,0,0,0,0,192,183,0.018,0.154,0.018,0,0.257,0,0,1,8.8,1,0,0,0,286.5,343.8,11.7,9.7,0.9,0,0,0,0,0,0,0,0,0,0,0,0,0,0,143.6,0,-0.2,0,-0.1,21.1,18.3,18.4,18.1,12.2,12.4,15.1,13.2,0,0,0,148.2
16.6,0,-0.2766667,1969.56,7338.0127,0.13,0.02,-7.87,1,0,-0.7,-3,-6.2,-17.6,2.1,-5.1,44.3,0,0,0.5,0,0,3.7,-166,4.8,-105.3,0,0,-52.1,0,0,0,0,0,0,192,183,0.018,0.154,0.018,0,0.271,0,0,1,8.8,1,0,0,0,286.5,343.8,11.7,9.7,0.6,0,0,0,0,0,0,0,0,0,0,0,0,0,0,143.7,0,0.1,-0.2,0.1,21.1,18.3,18.4,18.1,12.2,12.2,15.2,13.4,0,0,0,149.6
16.7,0,-0.2783333,1969.56,7338.0127,0.13,0.02,-7.87,1,0,-0.1,-3.1,-6.4,-17.7,2.1,-5.2,44.3,0,0,0.8,0,0,3.7,-166,4.8,-105.3,0,0,-52.1,0,0,0,0,0,0,192,183,0.018,0.154,0.018,0,0.276,0,0,1,8.8,1,0,0,0,286.5,343.8,11.7,9.6,0.5,0,0,0,0,0,0,0,0,0,0,0,0,0,0,143.5,0,0.2,-0.2,0.8,21.1,18.3,18.4,18.1,12.2,12.3,15.2,13.4,0,0,0,149.6
16.8,0,-0.28,1969.56,7338.01268,0.07,0.02,147.59,1,0,-0.6,-2.4,-6.6,-16.7,2.1,-5.2,44.3,0,0,1.2,0,0,3.7,-165,4.6,-106.6,0,0,103.3,0,0,0,0,0,0,192,183,0.018,0.154,0.018,0,0.278,0,0,1,8.8,1,0,0,0,286.5,343.8,11.8,9.4,0.7,0,0,0,0,0,0,0,0,0,0,0,0,0,0,143.5,0,0.8,0.8,0.8,21.1,18.3,18.4,18.1,12.2,12.3,15.2,13.4,0,0,0,150.9
16.9,0,-0.2816667,1969.56,7338.01264,0.07,0.02,147.59,1,0,-0.6,-2.4,-6.7,-17.2,2.1,-5.2,44.4,0,0,1.3,0,0,3.7,-165,4.6,-106.6,0,0,103.3,0,0,0,0,0,0,192,183,0.018,0.154,0.018,0,0.275,0,0,1,8.8,1,0,0,0,286.5,343.8,11.8,9.4,0.9,0,0,0,0,0,0,0,0,0,0,0,0,0,0,143.6,0,0.8,0.8,0.3,21.1,18.3,18.4,18.1,12.2,12.4,15.3,13.2,0,0,0,151
17,0,-0.2833333,1969.56,7338.01262,0.07,0.02,147.59,1,0,-1.8,-1.8,-6.4,-16.9,2.1,-5.1,44.4,0,0,1,0,0,3.7,-165,4.6,-106.6,0,0,103.2,0,0,0,0,0,0,192,183,0.018,0.154,0.018,0,0.27,0,0,1,8.8,1,0,0,0,286.5,343.8,11.7,9.4,1.2,0,0,0,0,0,0,0,0,0,0,0,0,0,0,143.7,0,0.8,0.8,0.8,21.1,18.3,18.4,18.1,12.2,12.4,15.2,13.1,0,0,0,151
17.1,0,-0.285,1969.56,7338.0126,0.09,0.08,100.61,1,0,-1,-2.3,-6.7,-17,2.1,-5.1,44.4,0,0,0.7,0,0,3.1,-159,4.5,-107.1,0,0,56.2,0,0,0,0,0,0,192,183,0.018,0.154,0.018,0,0.261,0,0,1,8.8,1,0,0,0,286.5,343.8,11.7,9.5,1.3,0,0,0,0,0,0,0,0,0,0,0,0,0,0,143.6,0,-0.2,0.1,-0.6,21.1,18.3,18.4,18.1,12.2,12.4,15.2,13.1,0,0,0,151.5
17.2,0,-0.2866667,1969.56,7338.0126,0.09,0.08,100.61,1,0,-0.4,-3,-6.1,-17.2,2.1,-5.1,44.4,0,0,0.7,0,0,3.1,-159,4.5,-107.1,0,0,56.2,0,0,0,0,0,0,192,183,0.018,0.154,0.018,0,0.258,0,0,1,8.8,1,0,0,0,286.5,343.8,11.7,9.5,1,0,0,0,0,0,0,0,0,0,0,0,0,0,0,143.5,0,-0.2,-0.1,0.4,21,18.3,18.4,18.1,12.2,12.3,15.2,13.3,0,0,0,151.5
17.3,0,-0.2883333,1969.56,7338.01258,0.07,0.02,4.38,1,0,-0.3,-2.7,-7,-16.2,2.1,-5,44.4,0,0,1.1,0,0,3.1,-159,4.5,-107.1,0,0,-40,0,0,0,0,0,0,192,183,0.018,0.154,0.018,0,0.257,0,0,1,8.8,1,0,0,0,286.5,343.8,11.8,9.6,0.6,0,0,0,0,0,0,0,0,0,0,0,0,0,0,143.6,0,0.5,0.5,0,21.1,18.3,18.4,18.1,12.1,12.3,15.3,13.3,0,0,0,151.5
17.4,0,-0.29,1969.56,7338.01255,0.07,0.02,4.38,1,0,-0.3,-2.7,-7.4,-16.5,2.1,-5,44.5,0,0,1.3,0,0,3.6,-150,4.4,-107.1,0,0,-40,0,0,0,0,0,0,192,183,0.018,0.154,0.018,0,0.259,0,0,1,8.8,1,0,0,0,286.5,343.8,11.9,9.6,0.4,0,0,0,0,0,0,0,0,0,0,0,0,0,0,143.9,0,0.1,-0.2,1.8,21.1,18.3,18.4,18.1,12.1,12.3,15.3,13.3,0,0,0,151.6
17.5,0,-0.2916667,1969.56,7338.01253,0.07,0.02,4.38,1,0,-0.8,-2.4,-6.5,-17,2.1,-5,44.5,0,0,1.2,0,0,3.6,-150,4.4,-107.1,0,0,-40.1,0,0,0,0,0,0,192,183,0.018,0.154,0.018,0,0.26,0,0,1,8.8,1,0,0,0,286.5,343.8,11.8,9.6,0.6,0,0,0,0,0,0,0,0,0,0,0,0,0,0,143.6,0,0.1,0.5,0.4,21,18.3,18.4,18.1,12.1,12.3,15.3,13.3,0,0,0,151.6
17.6,0,-0.2933333,1969.56,7338.01252,0.11,0.1,67.2,1,0,-1.3,-1.9,-6.5,-17,2.2,-5,44.5,0,0,0.5,0,0,3.6,-150,4.4,-107.1,0,0,22.7,0,0,0,0,0,0,192,183,0.018,0.154,0.017,0,0.264,0,0,1,8.8,1,0,0,0,286.5,343.8,11.7,9.6,1,0,0,0,0,0,0,0,0,0,0,0,0,0,0,143.6,0,-0.1,-0.2,0,21.1,18.3,18.4,18.1,12.1,12.3,15.3,13.3,0,0,0,151.6
17.7,0,-0.295,1969.56,7338.0125,0.11,0.1,67.2,1,0,-1.3,-1.9,-6.9,-17,2.2,-5,44.5,0,0,1.2,0,0,3.6,-150,4.4,-107.1,0,0,22.7,0,0,0,0,0,0,192,183,0.018,0.154,0.018,0,0.266,0,0,1,8.8,1,0,0,0,286.5,343.8,11.6,9.5,1.4,0,0,0,0,0,0,0,0,0,0,0,0,0,0,143.8,0,0.2,0.1,-0.2,21.1,18.3,18.4,18.1,12.2,12.3,15.2,13.3,0,0,0,151.6
17.8,0,-0.2966667,1969.56,7338.01249,0.04,0.02,125.68,1,0,-1.9,-1.6,-6.7,-17.2,2.1,-5.1,44.5,0,0,1.2,0,0,3.6,-150,4.4,-107.1,0,0,81.1,0,0,0,0,0,0,192,183,0.018,0.154,0.017,0,0.267,0,0,1,8.8,1,0,0,0,286.5,343.8,11.5,9.4,1.4,0,0,0,0,0,0,0,0,0,0,0,0,0,0,143.5,0,0.1,-0.2,-0.7,21.1,18.3,18.4,18.1,12.3,12.4,15,13.2,0,0,0,151.6
17.9,0,-0.2983333,1969.56,7338.01249,0.04,0.02,125.68,1,0,-1.9,-1.6,-6.6,-16.8,2.2,-5.1,44.5,0,0,0.5,0,0,3.3,-150,4.3,-106.9,0,0,81.1,0,0,0,0,0,0,192,183,0.018,0.154,0.018,0,0.272,0,0,1,8.8,1,0,0,0,286.5,343.8,11.6,9.2,1.1,0,0,0,0,0,0,0,0,0,0,0,0,0,0,143.6,0,-0.1,0,-0.7,21.1,18.3,18.4,18.1,12.3,12.4,15,13.2,0,0,0,151.4
18,0,-0.3,1969.56,7338.01247,0.04,0.02,125.68,1,0,-1.2,-1.9,-6.3,-17.8,2.2,-5.1,44.5,0,0,1.6,0,0,3.3,-150,4.3,-106.9,0,0,81.1,0,0,0,0,0,0,192,183,0.018,0.154,0.018,0,0.269,0,0,1,8.8,1,0,0,0,286.5,343.8,11.8,9.2,0.8,0,0,0,0,0,0,0,0,0,0,0,0,0,0,143.6,0,0.2,0.8,0,21.1,18.3,18.4,18.1,12.2,12.5,15.2,13,0,0,0,151.4
18.1,0,-0.3016667,1969.56,7338.01246,0.02,0.02,84.36,1,0,-1.1,-2.6,-7.3,-16.2,2.3,-5.1,44.5,0,0,0.4,0,0,3.3,-150,4.3,-106.9,0,0,39.8,0,0,0,0,0,0,192,183,0.018,0.154,0.018,0,0.272,0,0,1,8.8,1,0,0,0,286.5,343.8,12,9.3,0.6,0,0,0,0,0,0,0,0,0,0,0,0,0,0,143.7,0,0.5,0.1,1.1,21.1,18.3,18.4,18.1,12.1,12.5,15.4,13,0,0,0,151.4
18.2,0,-0.3033333,1969.56,7338.01246,0.02,0.02,84.36,1,0,-1.5,-1.5,-6.3,-17.6,2.2,-5.1,44.5,0,0,1.4,0,0,3.1,-141,4.2,-106.1,0,0,39.8,0,0,0,0,0,0,192,183,0.018,0.154,0.018,0,0.269,0,0,1,8.8,1,0,0,0,286.5,343.8,11.9,9.6,0.7,0,0,0,0,0,0,0,0,0,0,0,0,0,0,143.6,0,0.5,0.4,0,21.1,18.3,18.4,18.1,12.1,12.5,15.4,13,0,0,0,150.6
18.3,0,-0.305,1969.56,7338.01246,0.09,-0.08,-79.49,1,0,-1.1,-1.9,-7.4,-16.9,2.2,-5.1,44.5,0,0,0.4,0,0,3.1,-141,4.2,-106.1,0,0,-124,0,0,0,0,0,0,192,183,0.018,0.154,0.018,0,0.267,0,0,1,8.8,1,0,0,0,286.5,343.8,11.8,9.8,0.5,0,0,0,0,0,0,0,0,0,0,0,0,0,0,143.6,0,-0.1,-0.2,0,21.1,18.3,18.4,18.1,12.1,12.2,15.3,13.4,0,0,0,150.6
18.4,0,-0.3066667,1969.56,7338.01244,0.09,-0.08,-79.49,1,0,-1.1,-1.9,-6.1,-17.8,2.2,-5.1,44.5,0,0,0.2,0,0,3.1,-141,4.2,-106.1,0,0,-124,0,0,0,0,0,0,192,183,0.018,0.154,0.017,0,0.262,0,0,1,8.8,1,0,0,0,286.5,343.8,11.7,9.9,0.6,0,0,0,0,0,0,0,0,0,0,0,0,0,0,143.6,0,-0.5,-0.2,0,21.1,18.3,18.4,18.1,12.2,12.1,15.2,13.6,0,0,0,150.6
18.5,0,-0.3083333,1969.56,7338.01244,0.09,-0.08,-79.49,1,0,-0.2,-2.8,-6,-18,2.1,-5.1,44.5,0,0,1.4,0,0,3,-145,4,-105.8,0,0,-124,0,0,0,0,0,0,192,183,0.018,0.154,0.018,0,0.264,0,0,1,8.8,1,0,0,0,286.5,343.8,11.7,9.7,1,0,0,0,0,0,0,0,0,0,0,0,0,0,0,143.9,0,-0.1,-0.1,0,21.1,18.3,18.4,18.1,12.2,12.1,15.2,13.6,0,0,0,150.3
18.6,0,-0.31,1969.56,7338.01243,0.02,0,154.14,1,0,-0.6,-2.6,-6.1,-17.5,2.1,-5.1,44.5,0,0,0.4,0,0,3,-145,4,-105.8,0,0,109.6,0,0,0,0,0,0,192,183,0.018,0.154,0.018,0,0.266,0,0,1,8.8,1,0,0,0,286.5,343.8,11.7,9.5,1.2,0,0,0,0,0,0,0,0,0,0,0,0,0,0,143.5,0,-0.1,-0.2,-0.2,21.1,18.3,18.4,18.1,12.2,12.3,15.1,13.3,0,0,0,150.3
18.7,0,-0.3116667,1969.56,7338.01243,0.02,0,154.14,1,0,-0.2,-2.7,-6.1,-17.5,2.1,-5,44.5,0,0,1.3,0,0,3.6,-152,4,-105.9,0,0,109.7,0,0,0,0,0,0,192,183,0.018,0.154,0.018,0,0.269,0,0,1,8.8,1,0,0,0,286.5,343.8,11.8,9.3,1,0,0,0,0,0,0,0,0,0,0,0,0,0,0,143.8,0,-0.1,-0.2,-0.6,21.1,18.3,18.4,18.1,12.2,12.4,15.2,13.1,0,0,0,150.4
